,uid,facname,number,street,address,city,borough,borocode,postcode,latitude,longitude,xcoord,ycoord,bin,bbl,community board,council district,census tract,nta,facgroup,facsubgrp,factype,capacity,captype,proptype,optype,opname,opabbrev,overlevel,overagency,overabbrev,datasource,facdomain,schooldist,policeprct,servarea
34,9f412f22904d1e8b9fad764db74407a5,0235 - BROOKLYN DDSO,888,FOUNTAIN AVENUE,888 FOUNTAIN AVENUE,BROOKLYN,Brooklyn,3,11208.0,40.6561076136,-73.8654182398,1021591.4956799999,178342.76591400002,3327531,3045860300,305,42,107000,BK82,HUMAN SERVICES,PROGRAMS FOR PEOPLE WITH DISABILITIES,PROGRAMS FOR PEOPLE WITH DISABILITIES,0,,,Non-public,0235 - Brooklyn Ddso,Non-public,State,NYS Office for People With Developmental Disabilities,NYSOPWDD,nysopwdd_providers,HEALTH AND HUMAN SERVICES,19.0,75,Local
35,8443466a093a9e39bfcbe185d37915af,0265 - METRO NY DDSO,25,BEAVER STREET,25 BEAVER STREET,NEW YORK,Manhattan,1,10004.0,40.7053476205,-74.01199361649999,980924.6668530001,196253.864432,1000817,1000240001,101,1,900,MN25,HUMAN SERVICES,PROGRAMS FOR PEOPLE WITH DISABILITIES,PROGRAMS FOR PEOPLE WITH DISABILITIES,0,,,Non-public,0265 - Metro Ny Ddso,Non-public,State,NYS Office for People With Developmental Disabilities,NYSOPWDD,nysopwdd_providers,HEALTH AND HUMAN SERVICES,2.0,1,Local
36,570120648ae834978368e4bdbfb64704,0276 - STATEN ISLAND DDSO,1150,FOREST HILL ROAD,1150 FOREST HILL ROAD,STATEN ISLAND,Staten Island,5,10314.0,40.5934827535,-74.14510198949999,943951.735856,155531.557589,5130497,5020400300,502,50,27301,SI05,HUMAN SERVICES,PROGRAMS FOR PEOPLE WITH DISABILITIES,PROGRAMS FOR PEOPLE WITH DISABILITIES,0,,,Non-public,0276 - Staten Island Ddso,Non-public,State,NYS Office for People With Developmental Disabilities,NYSOPWDD,nysopwdd_providers,HEALTH AND HUMAN SERVICES,31.0,121,Local
71,dbb5ad798b445ee052b85a77d23b288e,1010 EAST 178TH STREET,1030,EAST 178 STREET,1030 EAST 178 STREET,BRONX,Bronx,2,10460.0,40.84098187,-73.8798670689,1017490.1058100001,245692.53622399998,2013245,2031300100,206,15,36100,BX17,HUMAN SERVICES,COMMUNITY CENTERS AND COMMUNITY SCHOOL PROGRAMS,NYCHA COMMUNITY CENTER - COMMUNITY CENTER,0,,,Public,NYC Housing Authority,NYCHA,City,NYC Housing Authority,NYCHA,nycha_communitycenters,HEALTH AND HUMAN SERVICES,12.0,48,Local
134,ed63192dc49ea57fa35c9762c373f325,121ST STREET FAMILY HEALTH CENTER,,,,NEW YORK,Manhattan,1,10035.0,40.800872999999996,-73.936897,1001720.7758,231062.922231,0,0,111,8,19400,MN34,HEALTH CARE,HOSPITALS AND CLINICS,DIAGNOSTIC AND TREATMENT CENTER EXTENSION CLINIC,0,,,Non-public,"Damian Family Care Centers, Inc.",Non-public,State,NYS Department of Health,NYSDOH,nysdoh_healthfacilities,HEALTH AND HUMAN SERVICES,4.0,25,Regional
154,d3c80bbc4d36a2327267cf63047e2e57,131 SAINT NICHOLAS AVENUE,131,SAINT NICHOLAS AVENUE,131 SAINT NICHOLAS AVENUE,NEW YORK,Manhattan,1,10026.0,40.8040860175,-73.9530855345,997238.171382,232230.722596,1058378,1019220041,110,9,21800,MN11,HUMAN SERVICES,COMMUNITY CENTERS AND COMMUNITY SCHOOL PROGRAMS,NYCHA COMMUNITY CENTER - CHILD CARE,0,,,Public,NYC Housing Authority,NYCHA,City,NYC Housing Authority,NYCHA,nycha_communitycenters,HEALTH AND HUMAN SERVICES,3.0,28,Local
173,e7259049dd6875f34fbff03bb267dd00,14 PENN DENTAL CENTER,,,,NEW YORK,Manhattan,1,10001.0,40.751511,-73.991699,986549.9297209999,213072.501643,0,0,105,3,10900,MN17,HEALTH CARE,HOSPITALS AND CLINICS,DIAGNOSTIC AND TREATMENT CENTER EXTENSION CLINIC,0,,,Non-public,"NY Hotel Trades Council&Hotel Association of NYC Health Ctr, Inc.",Non-public,State,NYS Department of Health,NYSDOH,nysdoh_healthfacilities,HEALTH AND HUMAN SERVICES,2.0,14,Regional
286,2cd7240c7a3fe7f52899e8945ff6eea5,2021 GRAND CONCOURSE,,,,BRONX,Bronx,2,10453.0,40.851776,-73.904449,1010684.13709,249616.86948000002,0,0,205,14,23501,BX41,HEALTH CARE,HOSPITALS AND CLINICS,DIAGNOSTIC AND TREATMENT CENTER EXTENSION CLINIC,0,,,Non-public,"Union Community Health Center, Inc.",Non-public,State,NYS Department of Health,NYSDOH,nysdoh_healthfacilities,HEALTH AND HUMAN SERVICES,9.0,46,Regional
318,d6cf546698838ab5e784556d11ae190c,2230 (THE CHILD CENTER OF NY) CHILDREN'S HCBS ICC,118-35,QUEENS BOULEVARD,118-35 QUEENS BOULEVARD,FOREST HILLS,Queens,4,11375.0,40.7152576421,-73.8306648812,1031192.6068899999,199909.529857,4052811,4022700041,406,29,75701,QN17,HEALTH CARE,MENTAL HEALTH,SUPPORT MENTAL HEALTH,0,,,Non-public,The Child Center of NY Inc.,Non-public,State,NYS Office of Mental Health,NYSOMH,nysomh_mentalhealth,HEALTH AND HUMAN SERVICES,28.0,112,Regional
358,61baa9daa4f2cd505f7630ba951c3e77,256 MASON AVENUE RADIOLOGY,,,,STATEN ISLAND,Staten Island,5,10305.0,40.586643,-74.086708,960166.658098,153018.205578,0,5033550002,502,50,7000,SI36,HEALTH CARE,HOSPITALS AND CLINICS,HOSPITAL EXTENSION CLINIC,0,,,Non-public,Staten Island University Hospital,Non-public,State,NYS Department of Health,NYSDOH,nysdoh_healthfacilities,HEALTH AND HUMAN SERVICES,31.0,122,Regional
398,1c20e4393f8f6516d042673252583f03,303 VERNON AVENUE,1060,MYRTLE AVENUE,1060 MYRTLE AVENUE,BROOKLYN,Brooklyn,3,11206.0,40.696062216,-73.9398710317,1000923.5935799999,192876.410065,3042881,3015850001,303,36,28300,BK35,HUMAN SERVICES,COMMUNITY CENTERS AND COMMUNITY SCHOOL PROGRAMS,NYCHA COMMUNITY CENTER - CASE MANAGEMENT/ REFERRAL SERVICES,0,,,Public,NYC Housing Authority,NYCHA,City,NYC Housing Authority,NYCHA,nycha_communitycenters,HEALTH AND HUMAN SERVICES,16.0,79,Local
437,3a52b1b2a96ec98e7d4e1d754068a4cc,335 EAST 111TH ST,335,EAST 111 STREET,335 EAST 111 STREET,NEW YORK,Manhattan,1,10029.0,40.7931266876,-73.9380747898,1001396.6866299999,228240.43907399997,1052877,1016830018,111,8,18000,MN34,HUMAN SERVICES,COMMUNITY CENTERS AND COMMUNITY SCHOOL PROGRAMS,NYCHA COMMUNITY CENTER - JOBS PLUS,0,,,Public,NYC Housing Authority,NYCHA,City,NYC Housing Authority,NYCHA,nycha_communitycenters,HEALTH AND HUMAN SERVICES,4.0,23,Local
463,b98b084c3acd8f45339d327e1ccfe4af,35TH STREET HEALTH CENTER,,,,NEW YORK,Manhattan,1,10018.0,40.752907,-73.992867,986226.2745350001,213581.081065,0,0,105,3,10900,MN17,HEALTH CARE,HOSPITALS AND CLINICS,DIAGNOSTIC AND TREATMENT CENTER EXTENSION CLINIC,0,,,Non-public,"Damian Family Care Centers, Inc.",Non-public,State,NYS Department of Health,NYSDOH,nysdoh_healthfacilities,HEALTH AND HUMAN SERVICES,2.0,14,Regional
596,c0ee1ffc088e915a9d329182b8733aca,572 WARREN ST,565,BALTIC STREET,565 BALTIC STREET,BROOKLYN,Brooklyn,3,11217.0,40.6816150708,-73.9825220293,989097.642627,187607.65387,3006388,3004010001,306,33,12700,BK38,HUMAN SERVICES,COMMUNITY CENTERS AND COMMUNITY SCHOOL PROGRAMS,NYCHA COMMUNITY CENTER - CHILD CARE,0,,,Public,NYC Housing Authority,NYCHA,City,NYC Housing Authority,NYCHA,nycha_communitycenters,HEALTH AND HUMAN SERVICES,13.0,78,Local
701,82f4143bd90bc0f0b14c3498b22a1bac,7TH AVENUE FAMILY HEATLH CENTER AT NYU LANGONE,,,,BROOKLYN,Brooklyn,3,11220.0,40.642390999999996,-74.006058,982568.7812280001,173316.799165,0,0,307,38,9800,BK34,HEALTH CARE,HOSPITALS AND CLINICS,HOSPITAL EXTENSION CLINIC,0,,,Non-public,NYU Langone Hospitals,Non-public,State,NYS Department of Health,NYSDOH,nysdoh_healthfacilities,HEALTH AND HUMAN SERVICES,15.0,72,Regional
725,fc70f32981b724c4cc2e5ef6dc2e38a5,850 GRAND ST CAMPUS HIGH SCHOOL,,,,BROOKLYN,Brooklyn,3,11206.0,40.711045,-73.93899499999999,1001162.7131,198335.25301400002,0,3030160001,301,34,48500,BK78,HEALTH CARE,HOSPITALS AND CLINICS,SCHOOL BASED DIAGNOSTIC AND TREATMENT CENTER EXTENSION CLINIC,0,,,Public,NYC Health and Hospitals Corporation,Non-public,State,NYS Department of Health,NYSDOH,nysdoh_healthfacilities,HEALTH AND HUMAN SERVICES,14.0,90,Regional
797,b757d775403e9317294b4ad094640d30,A MERRYLAND HEALTH CENTER,,,,BROOKLYN,Brooklyn,3,11224.0,40.576527,-73.985085,988393.302957,149321.127381,0,0,313,47,32600,BK21,HEALTH CARE,HOSPITALS AND CLINICS,DIAGNOSTIC AND TREATMENT CENTER,0,,,Non-public,A Merryland Operating LLC,Non-public,State,NYS Department of Health,NYSDOH,nysdoh_healthfacilities,HEALTH AND HUMAN SERVICES,21.0,60,Regional
807,c3736cbc43eaa8598ec50df6d2f04cd3,A VERY SPECIAL PLACE  INC.,49,CEDAR GROVE AVENUE,49 CEDAR GROVE AVENUE,STATEN ISLAND,Staten Island,5,10306.0,40.5634726501,-74.0988153017,956794.306598,144580.23976099998,5127820,5040810001,502,50,12804,SI45,HUMAN SERVICES,PROGRAMS FOR PEOPLE WITH DISABILITIES,PROGRAMS FOR PEOPLE WITH DISABILITIES,0,,,Non-public,A Very Special Place  Inc.,Non-public,State,NYS Office for People With Developmental Disabilities,NYSOPWDD,nysopwdd_providers,HEALTH AND HUMAN SERVICES,31.0,122,Local
808,71cace5b7f74c7d61d92b1747e0d7a03,A VERY SPECIAL PLACE INC RECREATION,55,QUINTARD STREET,55 QUINTARD STREET,STATEN ISLAND,Staten Island,5,10305.0,40.5961090652,-74.0845399205,960772.175225,156466.342522,5133354,5032240029,502,50,6400,SI14,HUMAN SERVICES,PROGRAMS FOR PEOPLE WITH DISABILITIES,PROGRAMS FOR PEOPLE WITH DISABILITIES,0,,,Non-public,A VERY SPECIAL PLACE INC,,City,NYC Department of Health and Mental Hygiene,NYCDOHMH,moeo_socialservicesiteloactions,HEALTH AND HUMAN SERVICES,31.0,122,Local
822,e2d414f40bff6e3b6d230bfa2a79e26d,A.R.C.  INC.,1145,EAST 55 STREET,1145 EAST 55 STREET,BROOKLYN,Brooklyn,3,11234.0,40.6290065832,-73.92281529729999,1005674.62588,168449.876077,3392601,3077810012,318,46,72000,BK58,HUMAN SERVICES,PROGRAMS FOR PEOPLE WITH DISABILITIES,PROGRAMS FOR PEOPLE WITH DISABILITIES,0,,,Non-public,A.R.C.  Inc.,Non-public,State,NYS Office for People With Developmental Disabilities,NYSOPWDD,nysopwdd_providers,HEALTH AND HUMAN SERVICES,22.0,63,Local
831,a2767c1750b1a20a22cd925fb6b56bad,"AAA HEALTH, INC. OP",1090,CONEY ISLAND AVENUE,1090 CONEY ISLAND AVENUE,BROOKLYN,Brooklyn,3,11230.0,40.6309957875,-73.9667538231,993478.068802,169166.908599,3170238,3064980024,314,40,46000,BK42,HEALTH CARE,CHEMICAL DEPENDENCY,OUTPATIENT CLINIC,0,,,Non-public,"AAA Health, Inc.",,State,NYS Office of Alcoholism and Substance Abuse Services,NYSOASAS,nysoasas_programs,HEALTH AND HUMAN SERVICES,22.0,70,Regional
834,e267be0113967a152aa09a615ac46f57,AABR  INC.,15-08,COLLEGE POINT BOULEVARD,15-08 COLLEGE POINT BOULEVARD,COLLEGE POINT,Queens,4,11356.0,40.783733000000005,-73.84644300000001,1026774.91257,224849.208544,4450798,4040767501,407,19,92500,QN23,HUMAN SERVICES,PROGRAMS FOR PEOPLE WITH DISABILITIES,PROGRAMS FOR PEOPLE WITH DISABILITIES,0,,,Non-public,Aabr  Inc.,Non-public,State,NYS Office for People With Developmental Disabilities,NYSOPWDD,nysopwdd_providers,HEALTH AND HUMAN SERVICES,25.0,109,Local
850,ea0147cb1716e8e0a874753178e3c439,ABC EARLY RECOGNITION AND SCREENING CLINIC,1841,PARK AVENUE,1841 PARK AVENUE,NEW YORK,Manhattan,1,10035.0,40.8056918707,-73.938019185,1001408.84404,232818.383986,1054495,1017750001,111,9,24200,MN34,HEALTH CARE,MENTAL HEALTH,SUPPORT MENTAL HEALTH,0,,,Non-public,Association to Benefit Children,Non-public,State,NYS Office of Mental Health,NYSOMH,nysomh_mentalhealth,HEALTH AND HUMAN SERVICES,5.0,25,Regional
882,6dca00f4502bb886ed470dacce201b40,ABRAHAM HOUSE INC.,342,WILLIS AVENUE,342 WILLIS AVENUE,BRONX,Bronx,2,10454.0,40.8112376893,-73.9210082067,1006116.3607399999,234842.710974,2000364,2022860006,201,8,4100,BX39,HUMAN SERVICES,SOUP KITCHENS AND FOOD PANTRIES,FOOD PANTRY,0,,,Non-public,Abraham House Inc.,Non-public,,Non-public,Non-public,foodbankny_foodbanks,HEALTH AND HUMAN SERVICES,7.0,40,Local
884,4e1fe680fb78245e36d2204a5a5fba7d,ABRAHAM LINCOLN (K410),,,,BROOKLYN,Brooklyn,3,11224.0,40.582621,-73.968699,992944.447942,151542.52405,0,3072540001,313,47,35400,BK23,HEALTH CARE,HOSPITALS AND CLINICS,SCHOOL BASED HOSPITAL EXTENSION CLINIC,0,,,Non-public,NYU Langone Hospitals,Non-public,State,NYS Department of Health,NYSDOH,nysdoh_healthfacilities,HEALTH AND HUMAN SERVICES,21.0,60,Regional
890,66c8e00802e9ee5d1b368e7320d1cbcf,ABRIGO DEL ALTISIMO,2009,MONTEREY AVENUE,2009 MONTEREY AVENUE,BRONX,Bronx,2,10457.0,40.848006051999995,-73.8947773215,1013361.45085,248246.401523,2011839,2030610031,206,15,37504,BX17,HUMAN SERVICES,SOUP KITCHENS AND FOOD PANTRIES,FOOD PANTRY,0,,,Non-public,Abrigo Del Altisimo,Non-public,,Non-public,Non-public,foodbankny_foodbanks,HEALTH AND HUMAN SERVICES,10.0,48,Local
893,480c62b50e599369050ccdf040d8f67c,ABUNDANT GRACE FOR THE FORSAKEN FOOD PANTRY,3101,EASTCHESTER ROAD,3101 EASTCHESTER ROAD,BRONX,Bronx,2,10469.0,40.8713213727,-73.843972377,1027402.2666799999,256762.01999,2095092,2047610050,212,12,35800,BX03,HUMAN SERVICES,SOUP KITCHENS AND FOOD PANTRIES,FOOD PANTRY,0,,,Non-public,ABUNDANT GRACE FOR THE FORSAKEN FOOD PANTRY,Non-public,,Non-public,Non-public,foodbankny_foodbanks,HEALTH AND HUMAN SERVICES,11.0,47,Local
896,9c56d8ceb1cd7379f69754a404aa5d57,ABUNDANT LIFE TABERNACLE INC,2692,3 AVENUE,2692 3 AVENUE,BRONX,Bronx,2,10454.0,40.813374555,-73.9222205393,1005780.07391,235620.946787,2000653,2023060004,201,8,4100,BX39,HUMAN SERVICES,SOUP KITCHENS AND FOOD PANTRIES,FOOD PANTRY,0,,,Non-public,Abundant Life Tabernacle Inc,Non-public,,Non-public,Non-public,foodbankny_foodbanks,HEALTH AND HUMAN SERVICES,7.0,40,Local
952,d5302db11c59503abf76e2125ca3f735,ACE - CSS,14,EAST 28 STREET,14 EAST 28 STREET,NEW YORK,Manhattan,1,10016.0,40.743995288200004,-73.9865462529,987978.0043,210334.463895,1016894,1008570066,105,2,5600,MN13,HEALTH CARE,MENTAL HEALTH,SUPPORT MENTAL HEALTH,0,,,Non-public,Center for Urban Community Services Inc.,Non-public,State,NYS Office of Mental Health,NYSOMH,nysomh_mentalhealth,HEALTH AND HUMAN SERVICES,2.0,13,Regional
998,698c97bad9332fe8c7f53d3613a6c323,ACKERMAN INSTITUTE FOR THE FAMILY,936,BROADWAY,936 BROADWAY,NEW YORK,Manhattan,1,10010.0,40.740245,-73.989127,987263.0544530001,208968.015347,1016277,1008507502,105,2,5600,MN13,HEALTH CARE,MENTAL HEALTH,OUTPATIENT MENTAL HEALTH,0,,,Non-public,Ackerman Institute for the Family,Non-public,State,NYS Office of Mental Health,NYSOMH,nysomh_mentalhealth,HEALTH AND HUMAN SERVICES,2.0,13,Regional
999,577af666702c215b83728fb479473818,ACMH - HH CM,545,EIGHTH AVENUE,545 EIGHTH AVENUE,NEW YORK,Manhattan,1,10018.0,40.7545054564,-73.9921885743,986414.18775,214163.466572,1013622,1007610033,104,3,11100,MN13,HEALTH CARE,MENTAL HEALTH,SUPPORT MENTAL HEALTH,0,,,Non-public,ACMH Inc.,Non-public,State,NYS Office of Mental Health,NYSOMH,nysomh_mentalhealth,HEALTH AND HUMAN SERVICES,2.0,14,Regional
1000,82f932005021ceccfc300add68a5391c,ACMH - HH NONMED CM,545,EIGHTH AVENUE,545 EIGHTH AVENUE,NEW YORK,Manhattan,1,10018.0,40.7545054564,-73.9921885743,986414.18775,214163.466572,1013622,1007610033,104,3,11100,MN13,HEALTH CARE,MENTAL HEALTH,SUPPORT MENTAL HEALTH,0,,,Non-public,ACMH Inc.,Non-public,State,NYS Office of Mental Health,NYSOMH,nysomh_mentalhealth,HEALTH AND HUMAN SERVICES,2.0,14,Regional
1003,6f60801c2fe2c2e28a596a06fcf54a68,ACS - THE ADMINISTRATION FOR CHILDREN'S SERVICES,2501,GRAND CONCOURSE,2501 GRAND CONCOURSE,BRONX,Bronx,2,10468.0,40.8629946441,-73.8974572938,1012613.60355,253706.43735500003,2013811,2031670001,207,14,40100,BX05,HUMAN SERVICES,SOUP KITCHENS AND FOOD PANTRIES,FOOD PANTRY,0,,,Non-public,ACS - The Administration for Children's Services,Non-public,,Non-public,Non-public,foodbankny_foodbanks,HEALTH AND HUMAN SERVICES,10.0,52,Local
1006,ea1cdd67d7365c17374877b5e749f456,ACS PRE-PLACEMENT PROGRAM,462,FIRST AVENUE,462 FIRST AVENUE,NEW YORK,Manhattan,1,10016.0,40.7391658296,-73.9750002675,991177.8740600001,208575.640969,1086515,1009620100,106,4,6200,MN20,HEALTH CARE,MENTAL HEALTH,SUPPORT MENTAL HEALTH,0,,,Public,NYC Health and Hospitals Corporation,NYCHHC,State,NYS Office of Mental Health,NYSOMH,nysomh_mentalhealth,HEALTH AND HUMAN SERVICES,2.0,13,Regional
1008,517ae0e24911bb16fe6baea845bd10b1,ACT INTENSIVE,35,BAY RIDGE AVENUE,35 BAY RIDGE AVENUE,BROOKLYN,Brooklyn,3,11220.0,40.6385501658,-74.0345191719,974669.6733479999,171919.308471,3144971,3058590162,310,43,3400,BK31,HEALTH CARE,MENTAL HEALTH,OUTPATIENT MENTAL HEALTH,0,,,Non-public,PSCH Inc. dba Welllife Network,Non-public,State,NYS Office of Mental Health,NYSOMH,nysomh_mentalhealth,HEALTH AND HUMAN SERVICES,20.0,68,Regional
1009,4f066ec0650e9c4889431ed7cde7b2ce,ACT OF FAITH MINISTRIES,141,MANHATTAN AVENUE,141 MANHATTAN AVENUE,BROOKLYN,Brooklyn,3,11206.0,40.7076279716,-73.9452505582,999429.2325950001,197089.180839,3071088,3030510018,301,34,50500,BK90,HUMAN SERVICES,SOUP KITCHENS AND FOOD PANTRIES,FOOD PANTRY,0,,,Non-public,Act of Faith Ministries,Non-public,,Non-public,Non-public,foodbankny_foodbanks,HEALTH AND HUMAN SERVICES,14.0,90,Local
1010,20ef305d53294713388815fba18ca6c5,ACT PROGRAM KINGS,2010,ATLANTIC AVENUE,2010 ATLANTIC AVENUE,BROOKLYN,Brooklyn,3,11233.0,40.676599582899996,-73.9210983142,1006135.60097,185789.740183,3396114,3014310012,316,41,30300,BK79,HEALTH CARE,MENTAL HEALTH,OUTPATIENT MENTAL HEALTH,0,,,Non-public,Services for the Underserved Inc.,Non-public,State,NYS Office of Mental Health,NYSOMH,nysomh_mentalhealth,HEALTH AND HUMAN SERVICES,16.0,73,Regional
1011,0426aab0550209adc3b58fbfba99ba26,ACT TEAM,3050,WHITE PLAINS ROAD,3050 WHITE PLAINS ROAD,BRONX,Bronx,2,10467.0,40.8704733946,-73.8668342039,1021079.88909,256442.631419,2101554,2045680008,212,15,33800,BX07,HEALTH CARE,MENTAL HEALTH,OUTPATIENT MENTAL HEALTH,0,,,Non-public,Bronx Psychiatric Center,Non-public,State,NYS Office of Mental Health,NYSOMH,nysomh_mentalhealth,HEALTH AND HUMAN SERVICES,11.0,47,Regional
1023,3db6a9d2d5c824c12c4e8c530ccfbcbb,ACTS COMMUNITY DEVELOPMENT CORP.,2114,MERMAID AVENUE,2114 MERMAID AVENUE,BROOKLYN,Brooklyn,3,11224.0,40.5760366796,-73.98841554180001,987468.1208479999,149142.351567,3189549,3070580007,313,47,32600,BK21,HUMAN SERVICES,SOUP KITCHENS AND FOOD PANTRIES,FOOD PANTRY,0,,,Non-public,Acts Community Development Corp.,Non-public,,Non-public,Non-public,foodbankny_foodbanks,HEALTH AND HUMAN SERVICES,21.0,60,Local
1025,8962824c05439a4349727e67e512a510,ACTS COMMUNITY DEVELOPMENT CORPORATION,2114,MERMAID AVENUE,2114 MERMAID AVENUE,BROOKLYN,Brooklyn,3,11224.0,40.5760366796,-73.98841554180001,987468.1208479999,149142.351567,3189549,3070580007,313,47,32600,BK21,HUMAN SERVICES,SOUP KITCHENS AND FOOD PANTRIES,SOUP KITCHEN,0,,,Non-public,Acts Community Development Corporation,Non-public,,Non-public,Non-public,foodbankny_foodbanks,HEALTH AND HUMAN SERVICES,21.0,60,Local
1026,1b41774c0d48395eeee16e614c23a7c5,ACUTE PSYCHIATRIC EMERGENCY ROOM,1545,ATLANTIC AVENUE,1545 ATLANTIC AVENUE,BROOKLYN,Brooklyn,3,11213.0,40.6784307187,-73.9373889876,1001616.4487,186453.225405,3048072,3017050001,303,36,27100,BK61,HEALTH CARE,MENTAL HEALTH,EMERGENCY MENTAL HEALTH,0,,,Non-public,Interfaith Medical Center Inc.,Non-public,State,NYS Office of Mental Health,NYSOMH,nysomh_mentalhealth,HEALTH AND HUMAN SERVICES,16.0,81,Regional
1031,9fab60bdb1331746e475623c475d80d7,ADAMS,690,WESTCHESTER AVENUE,690 WESTCHESTER AVENUE,BRONX,Bronx,2,10455.0,40.8165355475,-73.9067228455,1010068.75101,236776.79758,2091976,2026540002,201,17,7900,BX34,HUMAN SERVICES,COMMUNITY CENTERS AND COMMUNITY SCHOOL PROGRAMS,NYCHA COMMUNITY CENTER - HEAD START,0,,,Public,NYC Housing Authority,NYCHA,City,NYC Housing Authority,NYCHA,nycha_communitycenters,HEALTH AND HUMAN SERVICES,7.0,40,Local
1032,4e5458ace8aaf42f4c6e6c1b129c815c,ADAMS,755,EAST 152 STREET,755 EAST 152 STREET,BRONX,Bronx,2,10455.0,40.8160874795,-73.907077907,1009970.6445899999,236613.44595,2091979,2026540002,201,17,7900,BX34,HUMAN SERVICES,COMMUNITY CENTERS AND COMMUNITY SCHOOL PROGRAMS,,0,,,Public,NYC Housing Authority,NYCHA,City,NYC Housing Authority,NYCHA,nycha_communitycenters,HEALTH AND HUMAN SERVICES,7.0,40,Local
1035,778681a1ee0e08d5b0d5002260bd419a,ADAPT COMMUNITY NETWORK,,,,BROOKLYN,Brooklyn,3,11230.0,40.630581,-73.973892,991496.785716,169015.11916600002,0,0,314,44,48000,BK42,HEALTH CARE,HOSPITALS AND CLINICS,DIAGNOSTIC AND TREATMENT CENTER,0,,,Non-public,United Cerebral Palsy of New York City Inc,Non-public,State,NYS Department of Health,NYSDOH,nysdoh_healthfacilities,HEALTH AND HUMAN SERVICES,22.0,70,Regional
1036,c5bd1a7fefcb3ca08411518984a1fdcc,ADAPT COMMUNITY NETWORK,,,,BRONX,Bronx,2,10454.0,40.807907,-73.92229499999999,1005761.22956,233628.90441100002,0,0,201,8,2500,BX39,HEALTH CARE,HOSPITALS AND CLINICS,DIAGNOSTIC AND TREATMENT CENTER EXTENSION CLINIC,0,,,Non-public,United Cerebral Palsy of New York City Inc,Non-public,State,NYS Department of Health,NYSDOH,nysdoh_healthfacilities,HEALTH AND HUMAN SERVICES,7.0,40,Regional
1037,a6c1ddb41e75c0eb1d3af5379fa5de1a,ADAPT COMMUNITY NETWORK (DBA),80,MAIDEN LANE,80 MAIDEN LANE,NEW YORK,Manhattan,1,10038.0,40.7070826367,-74.00780408199999,982086.307572,196885.851685,1001015,1000420031,101,1,700,MN25,HUMAN SERVICES,PROGRAMS FOR PEOPLE WITH DISABILITIES,PROGRAMS FOR PEOPLE WITH DISABILITIES,0,,,Non-public,Adapt Community Network (Dba),Non-public,State,NYS Office for People With Developmental Disabilities,NYSOPWDD,nysopwdd_providers,HEALTH AND HUMAN SERVICES,2.0,1,Local
1050,99eb17a3762a91d573cc44f491296a53,ADDICTION CARE INTERVENTIONS MSW-IP,500,WEST 57 STREET,500 WEST 57 STREET,NEW YORK,Manhattan,1,10019.0,40.7689598781,-73.9889773527,987303.2073,219429.78264499997,1027066,1010850036,104,6,13500,MN15,HEALTH CARE,CHEMICAL DEPENDENCY,MED SUP WITHDRAWAL - INPATIENT,0,,,Non-public,Addiction Care Interventions,,State,NYS Office of Alcoholism and Substance Abuse Services,NYSOASAS,nysoasas_programs,HEALTH AND HUMAN SERVICES,2.0,18,Regional
1051,da3b16b8cdc851f400600bef1581df86,ADDICTION CARE INTERVENTIONS OP,500,WEST 57 STREET,500 WEST 57 STREET,NEW YORK,Manhattan,1,10019.0,40.7689598781,-73.9889773527,987303.2073,219429.78264499997,1027066,1010850036,104,6,13500,MN15,HEALTH CARE,CHEMICAL DEPENDENCY,OUTPATIENT CLINIC,0,,,Non-public,Addiction Care Interventions,,State,NYS Office of Alcoholism and Substance Abuse Services,NYSOASAS,nysoasas_programs,HEALTH AND HUMAN SERVICES,2.0,18,Regional
1052,86f39dcc3b49aa5a71827c3cdd43b1ba,ADDICTION RECOVERY SERVICES (ARS) OP,142-02,20 AVENUE,142-02 20 AVENUE,WHITESTONE,Queens,4,11357.0,40.7804782068,-73.8274122713,1032047.4683700001,223673.19030900003,4099356,4041830075,407,19,90700,QN23,HEALTH CARE,CHEMICAL DEPENDENCY,OUTPATIENT CLINIC,0,,,Non-public,"WellLife Network, Inc.",,State,NYS Office of Alcoholism and Substance Abuse Services,NYSOASAS,nysoasas_programs,HEALTH AND HUMAN SERVICES,25.0,109,Regional
1069,6f46c1db77fdba7f2489ed69fc4f412a,"ADMIRABLE CHURCH, INC.",1910,FLATBUSH AVENUE,1910 FLATBUSH AVENUE,BROOKLYN,Brooklyn,3,11210.0,40.6231071017,-73.93773376989999,1001535.1435700001,166297.242486,3217010,3078100037,318,45,73800,BK58,HUMAN SERVICES,SOUP KITCHENS AND FOOD PANTRIES,FOOD PANTRY,0,,,Non-public,"Admirable Church, Inc.",Non-public,,Non-public,Non-public,foodbankny_foodbanks,HEALTH AND HUMAN SERVICES,22.0,63,Local
1075,ea937cf51978300f6dc2a8edc224e30e,ADOLESCENT CAREER DEVELOPMENT CENTER,595,GERARD AVENUE,595 GERARD AVENUE,BRONX,Bronx,2,10451.0,40.820480664,-73.9291519801,1003859.29345,238208.329252,2001143,2023540001,204,8,6300,BX63,HEALTH CARE,MENTAL HEALTH,SUPPORT MENTAL HEALTH,0,,,Non-public,Mental Health Association of NYC,Non-public,State,NYS Office of Mental Health,NYSOMH,nysomh_mentalhealth,HEALTH AND HUMAN SERVICES,7.0,44,Regional
1076,3210d01549f3c5808b18085d34bf479d,ADOLESCENT HEALTH AND WELLNESS CENTER,,,,BRONX,Bronx,2,10459.0,40.821728,-73.891602,1014251.7988100001,238673.412011,0,0,202,17,11900,BX27,HEALTH CARE,HOSPITALS AND CLINICS,DIAGNOSTIC AND TREATMENT CENTER EXTENSION CLINIC,0,,,Non-public,Urban Health Plan Inc,Non-public,State,NYS Department of Health,NYSDOH,nysdoh_healthfacilities,HEALTH AND HUMAN SERVICES,8.0,41,Regional
1077,816fc2021e46b24ae565d15e895dacea,ADOLESCENT HEALTH CENTER - MENTAL HEALTH CLINIC,312,EAST 94 STREET,312 EAST 94 STREET,NEW YORK,Manhattan,1,10128.0,40.7823442718,-73.9471912709,998874.7610889999,224310.38312199997,1050296,1015560040,108,5,15400,MN32,HEALTH CARE,MENTAL HEALTH,OUTPATIENT MENTAL HEALTH,0,,,Non-public,Mount Sinai Medical Center,Non-public,State,NYS Office of Mental Health,NYSOMH,nysomh_mentalhealth,HEALTH AND HUMAN SERVICES,2.0,19,Regional
1079,7ac948289397c4aa26aa20905e04b4ec,ADOLESCENT SKILLS CENTER MANHATTAN,50,BROADWAY,50 BROADWAY,NEW YORK,Manhattan,1,10004.0,40.7062286488,-74.01242292479999,980805.682955,196574.866086,1000813,1000220024,101,1,900,MN25,HEALTH CARE,MENTAL HEALTH,SUPPORT MENTAL HEALTH,0,,,Non-public,Mental Health Association of NYC,Non-public,State,NYS Office of Mental Health,NYSOMH,nysomh_mentalhealth,HEALTH AND HUMAN SERVICES,2.0,1,Regional
1080,21bfb9251b11bc578edb115c424ab7bf,ADOLESCENT SKILLS CENTER QUEENS,29-46,NORTHERN BOULEVARD,29-46 NORTHERN BOULEVARD,LONG ISLAND CITY,Queens,4,11101.0,40.7496634708,-73.9356354266,1002083.76555,212405.830159,4436695,4002390034,401,26,17100,QN31,HEALTH CARE,MENTAL HEALTH,SUPPORT MENTAL HEALTH,0,,,Non-public,Mental Health Association of NYC,Non-public,State,NYS Office of Mental Health,NYSOMH,nysomh_mentalhealth,HEALTH AND HUMAN SERVICES,30.0,114,Regional
1081,0b7b3d5ba6361d1624946adec621a815,ADOLESCENT SKILLS CENTER SOUTH,975,KELLY STREET,975 KELLY STREET,BRONX,Bronx,2,10459.0,40.822184,-73.89609200000001,1013008.8849700001,238838.043267,2114693,2027037501,202,17,8700,BX33,HEALTH CARE,MENTAL HEALTH,SUPPORT MENTAL HEALTH,0,,,Non-public,Mental Health Association of NYC,Non-public,State,NYS Office of Mental Health,NYSOMH,nysomh_mentalhealth,HEALTH AND HUMAN SERVICES,8.0,41,Regional
1082,325f222f6f1a3ad8a6dfbf10eb9a069d,ADOLESCENT SKILLS CENTER WEST,975,KELLY STREET,975 KELLY STREET,BRONX,Bronx,2,10459.0,40.822184,-73.89609200000001,1013008.8849700001,238838.043267,2114693,2027037501,202,17,8700,BX33,HEALTH CARE,MENTAL HEALTH,SUPPORT MENTAL HEALTH,0,,,Non-public,Mental Health Association of NYC,Non-public,State,NYS Office of Mental Health,NYSOMH,nysomh_mentalhealth,HEALTH AND HUMAN SERVICES,8.0,41,Regional
1084,1b4b6d946b6c9b4f03d90a0827938356,ADULT CONSULTATION SERVICE,451,CLARKSON AVENUE,451 CLARKSON AVENUE,BROOKLYN,Brooklyn,3,11203.0,40.6565801919,-73.9448944558,999539.661357,178491.06334300002,3327711,3048290001,309,40,80800,BK60,HEALTH CARE,MENTAL HEALTH,SUPPORT MENTAL HEALTH,0,,,Public,NYC Health and Hospitals Corporation,NYCHHC,State,NYS Office of Mental Health,NYSOMH,nysomh_mentalhealth,HEALTH AND HUMAN SERVICES,18.0,71,Regional
1085,a2aefb0104e306df27f0a164543147db,ADULT HEALTH HOME CARE COORDINATION,2432,GRAND CONCOURSE,2432 GRAND CONCOURSE,BRONX,Bronx,2,10458.0,40.8605544434,-73.8974911465,1012605.2802200001,252817.367334,2013591,2031520060,205,15,23702,BX05,HEALTH CARE,MENTAL HEALTH,SUPPORT MENTAL HEALTH,0,,,Non-public,Jewish Board of Family & Children's Services,Non-public,State,NYS Office of Mental Health,NYSOMH,nysomh_mentalhealth,HEALTH AND HUMAN SERVICES,10.0,46,Regional
1086,b48ff5e9540f4074be12bd1e3ca7faf7,ADULT HOME ASSESSMENT,1216,BAY STREET,1216 BAY STREET,STATEN ISLAND,Staten Island,5,10305.0,40.6133834921,-74.0660262298,965918.408207,162755.441268,5111279,5028540026,501,49,800,SI37,HEALTH CARE,MENTAL HEALTH,SUPPORT MENTAL HEALTH,0,,,Non-public,St. Joseph's Medical Center,Non-public,State,NYS Office of Mental Health,NYSOMH,nysomh_mentalhealth,HEALTH AND HUMAN SERVICES,31.0,120,Regional
1087,4f257f154ead3c938e56353ad94b2baf,ADULT HOMES - COURT ORDERED - ASSESSMENT SERVICES,2425,WESTCHESTER AVENUE,2425 WESTCHESTER AVENUE,BRONX,Bronx,2,10461.0,40.837657397600005,-73.8459669758,1026872.19197,244495.98761999997,2041708,2039730038,210,18,20200,BX59,HEALTH CARE,MENTAL HEALTH,SUPPORT MENTAL HEALTH,0,,,Non-public,PIBLY Residential Programs Inc.,Non-public,State,NYS Office of Mental Health,NYSOMH,nysomh_mentalhealth,HEALTH AND HUMAN SERVICES,11.0,45,Regional
1088,911397fbee77248281b5da3053ea592c,ADULT INPATIENT SERVICE,760,BROADWAY,760 BROADWAY,BROOKLYN,Brooklyn,3,11206.0,40.6995338827,-73.9422865342,1000252.9483,194140.790312,3048341,3017230001,303,36,28501,BK78,HEALTH CARE,MENTAL HEALTH,INPATIENT MENTAL HEALTH,0,,,Public,NYC Health and Hospitals Corporation,NYCHHC,State,NYS Office of Mental Health,NYSOMH,nysomh_mentalhealth,HEALTH AND HUMAN SERVICES,14.0,79,Regional
1093,68c06d3640ff9f0e4ec1309478f89911,ADVANCED CENTER FOR PSYCHOTHERAPY FOREST HILLS,103-26,68 ROAD,103-26 68 ROAD,FOREST HILLS,Queens,4,11375.0,40.7252066702,-73.84897055399999,1026111.7154,203524.981287,4051282,4021380011,406,29,71303,QN17,HEALTH CARE,MENTAL HEALTH,OUTPATIENT MENTAL HEALTH,0,,,Non-public,Advanced Center for Psychotherapy Inc.,Non-public,State,NYS Office of Mental Health,NYSOMH,nysomh_mentalhealth,HEALTH AND HUMAN SERVICES,28.0,112,Regional
1094,275bdb334f62a395f68523b5f2017806,ADVANCED CENTER FOR PSYCHOTHERAPY JAMAICA BRANCH,178-10,WEXFORD TERRACE,178-10 WEXFORD TERRACE,JAMAICA,Queens,4,11432.0,40.712804901999995,-73.7850055266,1043852.33566,199043.692021,4212912,4099370001,408,24,46600,QN06,HEALTH CARE,MENTAL HEALTH,OUTPATIENT MENTAL HEALTH,0,,,Non-public,Advanced Center for Psychotherapy Inc.,Non-public,State,NYS Office of Mental Health,NYSOMH,nysomh_mentalhealth,HEALTH AND HUMAN SERVICES,29.0,107,Regional
1095,59012c7f390c8cc66f408f50925f6f1d,ADVANCED ENDOSCOPY CENTER,,,,BRONX,Bronx,2,10463.0,40.876979999999996,-73.906044,1010233.03191,258799.185067,0,0,208,14,28300,BX29,HEALTH CARE,HOSPITALS AND CLINICS,DIAGNOSTIC AND TREATMENT CENTER,0,,,Non-public,Advanced Endoscopy LLC,Non-public,State,NYS Department of Health,NYSDOH,nysdoh_healthfacilities,HEALTH AND HUMAN SERVICES,10.0,50,Regional
1096,a69451c0c4bafc7111348c5f7efc6b7a,ADVANCED HUMAN SERVICES OP,112-15,72 ROAD,112-15 72 ROAD,FOREST HILLS,Queens,4,11375.0,40.721323825,-73.8377747418,1029217.5405799999,202115.892078,4052705,4022480074,406,29,75702,QN17,HEALTH CARE,CHEMICAL DEPENDENCY,OUTPATIENT CLINIC,0,,,Non-public,"Advanced Human Services, Inc.",,State,NYS Office of Alcoholism and Substance Abuse Services,NYSOASAS,nysoasas_programs,HEALTH AND HUMAN SERVICES,28.0,112,Regional
1097,88faa85ab4f6019bc4403ddea7f23641,"ADVANCED HUMAN SERVICES, INC. MSW-OP",112-15,72 ROAD,112-15 72 ROAD,FOREST HILLS,Queens,4,11375.0,40.721323825,-73.8377747418,1029217.5405799999,202115.892078,4052705,4022480074,406,29,75702,QN17,HEALTH CARE,CHEMICAL DEPENDENCY,MED SUP WITHDRAWAL-OUTPATIENT,0,,,Non-public,"Advanced Human Services, Inc.",,State,NYS Office of Alcoholism and Substance Abuse Services,NYSOASAS,nysoasas_programs,HEALTH AND HUMAN SERVICES,28.0,112,Regional
1104,4a568582f2cb0751359c1c516d158f74,ADVOCACY,299,BROADWAY,299 BROADWAY,NEW YORK,Manhattan,1,10007.0,40.7151776007,-74.0058955366,982615.65288,199835.050675,1001648,1001500031,101,1,3300,MN24,HEALTH CARE,MENTAL HEALTH,SUPPORT MENTAL HEALTH,0,,,Non-public,Mobilization for Justice Inc.,Non-public,State,NYS Office of Mental Health,NYSOMH,nysomh_mentalhealth,HEALTH AND HUMAN SERVICES,2.0,1,Regional
1105,af56032201901f805c4a26233ee7dd4e,ADVOCACY,505,8 AVENUE,505 8 AVENUE,NEW YORK,Manhattan,1,10018.0,40.7531773955,-73.9932209647,986128.1971799999,213679.587126,1013575,1007590037,104,3,11100,MN13,HEALTH CARE,MENTAL HEALTH,SUPPORT MENTAL HEALTH,0,,,Non-public,NAMI - NYC Metro,Non-public,State,NYS Office of Mental Health,NYSOMH,nysomh_mentalhealth,HEALTH AND HUMAN SERVICES,2.0,14,Regional
1106,76b79e580973d748ea6651bd102a8245,ADVOCACY (MH CLINIC) - NON MEDICAID CC,175,REMSEN STREET,175 REMSEN STREET,BROOKLYN,Brooklyn,3,11201.0,40.6934759058,-73.991422727,986628.54611,191928.534828,3002095,3002500007,302,33,900,BK09,HEALTH CARE,MENTAL HEALTH,SUPPORT MENTAL HEALTH,0,,,Non-public,EAC Inc.,Non-public,State,NYS Office of Mental Health,NYSOMH,nysomh_mentalhealth,HEALTH AND HUMAN SERVICES,13.0,84,Regional
1107,23a9b7e315439e010fac96d02653d899,ADVOCACY / SUPPORT,200,VARICK STREET,200 VARICK STREET,NEW YORK,Manhattan,1,10014.0,40.728210916500004,-74.00449102350001,983005.2522430001,204583.465719,1008118,1005200001,102,3,3700,MN24,HEALTH CARE,MENTAL HEALTH,SUPPORT MENTAL HEALTH,0,,,Non-public,Project Renewal Inc.,Non-public,State,NYS Office of Mental Health,NYSOMH,nysomh_mentalhealth,HEALTH AND HUMAN SERVICES,2.0,1,Regional
1108,28ca699e1514a82a14c7b6a33e2aac86,ADVOCACY SERVICES,40,RECTOR STREET,40 RECTOR STREET,NEW YORK,Manhattan,1,10006.0,40.708631,-74.014659,980185.8665860001,197450.21073,1088750,1000557501,101,1,1300,MN25,HEALTH CARE,MENTAL HEALTH,SUPPORT MENTAL HEALTH,0,,,Non-public,Urban Justice Center,Non-public,State,NYS Office of Mental Health,NYSOMH,nysomh_mentalhealth,HEALTH AND HUMAN SERVICES,2.0,1,Regional
1109,b53deea4c38fc2bf8e9d8d3eeef5c87b,ADVOCACY SUPPORT SERVICES,156,BEACH 9 STREET,156 BEACH 9 STREET,FAR ROCKAWAY,Queens,4,11691.0,40.595822999999996,-73.743448,1055498.00917,156455.127024,4537516,4156127501,414,31,101002,QN15,HEALTH CARE,MENTAL HEALTH,SUPPORT MENTAL HEALTH,0,,,Non-public,Ohel Children's Home & Family Services Inc.,Non-public,State,NYS Office of Mental Health,NYSOMH,nysomh_mentalhealth,HEALTH AND HUMAN SERVICES,27.0,101,Regional
1110,e3f89bc41327068e0a6a9851e8a5bab8,ADVOCACY/SUPPORT SERVICES,42-09,28 STREET,42-09 28 STREET,LONG ISLAND CITY,Queens,4,11101.0,40.749342,-73.93889399999999,1001180.98064,212288.061397,4538327,4004207501,402,26,1900,QN31,HEALTH CARE,MENTAL HEALTH,SUPPORT MENTAL HEALTH,0,,,Non-public,NYC Department of Health and Mental Hygiene,Non-public,State,NYS Office of Mental Health,NYSOMH,nysomh_mentalhealth,HEALTH AND HUMAN SERVICES,30.0,108,Regional
1111,9f31d518882af0ef3fbaf5054e6337d2,ADVOCATES F/SVCS TO BLIND & MULTIHANDICA,3106,CONEY ISLAND AVENUE,3106 CONEY ISLAND AVENUE,BROOKLYN,Brooklyn,3,11235.0,40.5802178663,-73.9601007804,995333.1655829999,150667.973156,3412736,3086680845,313,48,36400,BK19,HUMAN SERVICES,PROGRAMS FOR PEOPLE WITH DISABILITIES,PROGRAMS FOR PEOPLE WITH DISABILITIES,0,,,Non-public,Advocates F/Svcs To Blind & Multihandica,Non-public,State,NYS Office for People With Developmental Disabilities,NYSOPWDD,nysopwdd_providers,HEALTH AND HUMAN SERVICES,21.0,60,Local
1129,45b00a67f26e56e286ba463ffae3beac,AFRICAN REFUGE INC JOBS & INTERNSHIPS,140,PARK HILL AVENUE,140 PARK HILL AVENUE,STATEN ISLAND,Staten Island,5,10304.0,40.616785977,-74.08069055,961848.133867,163998.46461700002,5116727,5029220265,501,49,4000,SI08,HUMAN SERVICES,WORKFORCE DEVELOPMENT,JOBS & INTERNSHIPS,0,,,Non-public,AFRICAN REFUGE INC,,City,NYC Department of Youth and Community Development,NYCDYCD,moeo_socialservicesiteloactions,HEALTH AND HUMAN SERVICES,31.0,120,Local
1131,a98d3d79b0431098b74f74d1d53306f3,AFRICAN SERVICES COMMITTEE,429,WEST 127 STREET,429 WEST 127 STREET,NEW YORK,Manhattan,1,10027.0,40.8134330245,-73.954442805,996860.6428319999,235635.970051,1084104,1019670060,109,7,21303,MN06,HUMAN SERVICES,SOUP KITCHENS AND FOOD PANTRIES,FOOD PANTRY,0,,,Non-public,African Services Committee,Non-public,,Non-public,Non-public,foodbankny_foodbanks,HEALTH AND HUMAN SERVICES,5.0,26,Local
1132,f983593d9440dbaca6e5e5336580c929,AFRICAN SERVICES COMMITTEE INC CHECK HEP B [574],429,WEST 127 STREET,429 WEST 127 STREET,NEW YORK,Manhattan,1,10027.0,40.8134330245,-73.954442805,996860.6428319999,235635.970051,1084104,1019670060,109,7,21303,MN06,HEALTH CARE,HOSPITALS AND CLINICS,DIAGNOSTIC AND TREATMENT CENTER,0,,,Non-public,AFRICAN SERVICES COMMITTEE INC,,City,NYC Department of Health and Mental Hygiene,NYCDOHMH,moeo_socialservicesiteloactions,HEALTH AND HUMAN SERVICES,5.0,26,Regional
1133,e93a8c1bd93c91d40049f53d3980c9c7,AFRICAN SERVICES COMMITTEE INC EARLY INTERVENTION SERVICES: PRIORITY POPULATIONS TESTING IN NON-CLINICAL SETTINGS,121,ST NICHOLAS AVENUE,121 ST NICHOLAS AVENUE,NEW YORK,Manhattan,1,10026.0,40.8036945381,-73.9531668954,997215.7230440001,232088.080821,1058377,1019220024,110,9,21800,MN11,HEALTH CARE,HEALTH PROMOTION AND DISEASE PREVENTION,EARLY INTERVENTION SERVICES: PRIORITY POPULATIONS TESTING IN NON-CLINICAL SETTINGS,0,,,Non-public,AFRICAN SERVICES COMMITTEE INC,,City,NYC Department of Health and Mental Hygiene,NYCDOHMH,moeo_socialservicesiteloactions,HEALTH AND HUMAN SERVICES,3.0,28,Regional
1134,cad5bd6486cbd52ac9ca57bc2cec461b,AFRICAN SERVICES COMMITTEE INC EARLY INTERVENTION SERVICES: PRIORITY POPULATIONS TESTING IN NON-CLINICAL SETTINGS,212,WEST 120 STREET,212 WEST 120 STREET,NEW YORK,Manhattan,1,10027.0,40.8059023596,-73.9517954153,997594.9739629999,232892.67386399998,1058447,1019250019,110,9,22000,MN11,HEALTH CARE,HEALTH PROMOTION AND DISEASE PREVENTION,EARLY INTERVENTION SERVICES: PRIORITY POPULATIONS TESTING IN NON-CLINICAL SETTINGS,0,,,Non-public,AFRICAN SERVICES COMMITTEE INC,,City,NYC Department of Health and Mental Hygiene,NYCDOHMH,moeo_socialservicesiteloactions,HEALTH AND HUMAN SERVICES,3.0,28,Regional
1135,0210ecb5ae428f93c3cbb4e56e64da53,AFRICAN SERVICES COMMITTEE INC EARLY INTERVENTION SERVICES: PRIORITY POPULATIONS TESTING IN NON-CLINICAL SETTINGS,429,WEST 127 STREET,429 WEST 127 STREET,NEW YORK,Manhattan,1,10027.0,40.8134330245,-73.954442805,996860.6428319999,235635.970051,1084104,1019670060,109,7,21303,MN06,HEALTH CARE,HEALTH PROMOTION AND DISEASE PREVENTION,EARLY INTERVENTION SERVICES: PRIORITY POPULATIONS TESTING IN NON-CLINICAL SETTINGS,0,,,Non-public,AFRICAN SERVICES COMMITTEE INC,,City,NYC Department of Health and Mental Hygiene,NYCDOHMH,moeo_socialservicesiteloactions,HEALTH AND HUMAN SERVICES,5.0,26,Regional
1136,3ac0b3b30177bb8af02cffc1310b76e9,AFRICAN SERVICES COMMITTEE INC FAMILY SUPPORT,429,WEST 127 STREET,429 WEST 127 STREET,NEW YORK,Manhattan,1,10027.0,40.8134330245,-73.954442805,996860.6428319999,235635.970051,1084104,1019670060,109,7,21303,MN06,HEALTH CARE,OTHER HEALTH CARE,FAMILY SUPPORT,0,,,Non-public,AFRICAN SERVICES COMMITTEE INC,,City,NYC Department of Youth and Community Development,NYCDYCD,moeo_socialservicesiteloactions,HEALTH AND HUMAN SERVICES,5.0,26,Regional
1137,960c34679f19b4509566c2c21d9fd0f9,AFRICAN SERVICES COMMITTEE INC LEGAL SERVICES NYC,429,WEST 127 STREET,429 WEST 127 STREET,NEW YORK,Manhattan,1,10027.0,40.8134330245,-73.954442805,996860.6428319999,235635.970051,1084104,1019670060,109,7,21303,MN06,HUMAN SERVICES,LEGAL AND INTERVENTION SERVICES,LEGAL SERVICES NYC,0,,,Non-public,AFRICAN SERVICES COMMITTEE INC,,City,NYC Department of Health and Mental Hygiene,NYCDOHMH,moeo_socialservicesiteloactions,HEALTH AND HUMAN SERVICES,5.0,26,Local
1138,6769f01e8f5b3d074f787dc2a469dccc,AFRICAN SERVICES COMMITTEE INC OUTREACH AND EDUCATION IN CBOS,429,WEST 127 STREET,429 WEST 127 STREET,NEW YORK,Manhattan,1,10027.0,40.8134330245,-73.954442805,996860.6428319999,235635.970051,1084104,1019670060,109,7,21303,MN06,HEALTH CARE,HEALTH PROMOTION AND DISEASE PREVENTION,OUTREACH AND EDUCATION IN CBOS,0,,,Non-public,AFRICAN SERVICES COMMITTEE INC,,City,NYC Department of Health and Mental Hygiene,NYCDOHMH,moeo_socialservicesiteloactions,HEALTH AND HUMAN SERVICES,5.0,26,Regional
1139,4861f9b2587142dc8ff1b6a0c292270d,AFRICAN SERVICES COMMITTEE INC SUPPORTIVE COUNSELING & FAMILY STABILIZATION SERVICES - GENERAL,429,WEST 127 STREET,429 WEST 127 STREET,NEW YORK,Manhattan,1,10027.0,40.8134330245,-73.954442805,996860.6428319999,235635.970051,1084104,1019670060,109,7,21303,MN06,HEALTH CARE,OTHER HEALTH CARE,SUPPORTIVE COUNSELING & FAMILY STABILIZATION SERVICES - GENERAL,0,,,Non-public,AFRICAN SERVICES COMMITTEE INC,,City,NYC Department of Health and Mental Hygiene,NYCDOHMH,moeo_socialservicesiteloactions,HEALTH AND HUMAN SERVICES,5.0,26,Regional
1152,5633b03eb9ab119f8a898707814cf1f1,AFTER HOURS PROJECT HEP-C PEER NAVIGATION [574],1204,BROADWAY,1204 BROADWAY,BROOKLYN,Brooklyn,3,11221.0,40.6920689632,-73.92693973989999,1004510.6170600001,191424.276978,3399422,3016130019,303,41,38700,BK35,HEALTH CARE,HEALTH PROMOTION AND DISEASE PREVENTION,HEP-C PEER NAVIGATION [574],0,,,Non-public,AFTER HOURS PROJECT,,City,NYC Department of Health and Mental Hygiene,NYCDOHMH,moeo_socialservicesiteloactions,HEALTH AND HUMAN SERVICES,16.0,81,Regional
1153,36c25c3503fd4333546803ddc59f12b7,AFTER HOURS PROJECT HIV TESTING SERVICES: PRIORITY POPULATIONS TESTING IN NON-CLINICAL SETTINGS,1204,BROADWAY,1204 BROADWAY,BROOKLYN,Brooklyn,3,11221.0,40.6920689632,-73.92693973989999,1004510.6170600001,191424.276978,3399422,3016130019,303,41,38700,BK35,HEALTH CARE,HOSPITALS AND CLINICS,DIAGNOSTIC AND TREATMENT CENTER,0,,,Non-public,AFTER HOURS PROJECT,,City,NYC Department of Health and Mental Hygiene,NYCDOHMH,moeo_socialservicesiteloactions,HEALTH AND HUMAN SERVICES,16.0,81,Regional
1154,c17169a2739f0a538747942b7900e3d5,AFTER HOURS PROJECT HIV TESTING SERVICES: PRIORITY POPULATIONS TESTING IN NON-CLINICAL SETTINGS,370,WILSON AVENUE,370 WILSON AVENUE,BROOKLYN,Brooklyn,3,11221.0,40.6948621599,-73.91589659979999,1007572.0540700001,192444.66753099998,3251930,3033420038,304,37,41700,BK78,HEALTH CARE,HOSPITALS AND CLINICS,DIAGNOSTIC AND TREATMENT CENTER,0,,,Non-public,AFTER HOURS PROJECT,,City,NYC Department of Health and Mental Hygiene,NYCDOHMH,moeo_socialservicesiteloactions,HEALTH AND HUMAN SERVICES,32.0,83,Regional
1155,033353c6e0ab1289a19d5e1423029a0c,AFTER HOURS PROJECT HIV TESTING SERVICES: PRIORITY POPULATIONS TESTING IN NON-CLINICAL SETTINGS,41,BROOKLYN AVENUE,41 BROOKLYN AVENUE,BROOKLYN,Brooklyn,3,11216.0,40.678739236300004,-73.9438669326,999819.585975,186564.409402,3054005,3018690001,303,36,27100,BK61,HEALTH CARE,HOSPITALS AND CLINICS,DIAGNOSTIC AND TREATMENT CENTER,0,,,Non-public,AFTER HOURS PROJECT,,City,NYC Department of Health and Mental Hygiene,NYCDOHMH,moeo_socialservicesiteloactions,HEALTH AND HUMAN SERVICES,13.0,79,Regional
1156,b8106b1c5e08104aa0092b48714a3c3b,AFTER HOURS PROJECT HIV TESTING SERVICES: PRIORITY POPULATIONS TESTING IN NON-CLINICAL SETTINGS,457,KNICKERBOCKER AVENUE,457 KNICKERBOCKER AVENUE,BROOKLYN,Brooklyn,3,11237.0,40.6990526804,-73.9183407834,1006892.85365,193970.756242,3075418,3033000008,304,37,43100,BK77,HEALTH CARE,HOSPITALS AND CLINICS,DIAGNOSTIC AND TREATMENT CENTER,0,,,Non-public,AFTER HOURS PROJECT,,City,NYC Department of Health and Mental Hygiene,NYCDOHMH,moeo_socialservicesiteloactions,HEALTH AND HUMAN SERVICES,32.0,83,Regional
1157,bd228455229630fd9dd2feda0c2e2cd1,AFTER HOURS PROJECT HIV TESTING SERVICES: PRIORITY POPULATIONS TESTING IN NON-CLINICAL SETTINGS,,,,BROOKLYN,Brooklyn,3,11237.0,40.6988063372,-73.918365802,1006886.0000100001,193880.999665,0,0,304,37,43100,BK77,HEALTH CARE,HOSPITALS AND CLINICS,DIAGNOSTIC AND TREATMENT CENTER,0,,,Non-public,AFTER HOURS PROJECT,,City,NYC Department of Health and Mental Hygiene,NYCDOHMH,moeo_socialservicesiteloactions,HEALTH AND HUMAN SERVICES,32.0,83,Regional
1158,130d00329ce89ab1636c5e45ad4a401c,AFTER HOURS PROJECT HIV TESTING SERVICES: SOCIAL NETWORK STRATEGY TESTING IN NON-CLINICAL SETTINGS,1204,BROADWAY,1204 BROADWAY,BROOKLYN,Brooklyn,3,11221.0,40.6920689632,-73.92693973989999,1004510.6170600001,191424.276978,3399422,3016130019,303,41,38700,BK35,HEALTH CARE,HOSPITALS AND CLINICS,DIAGNOSTIC AND TREATMENT CENTER,0,,,Non-public,AFTER HOURS PROJECT,,City,NYC Department of Health and Mental Hygiene,NYCDOHMH,moeo_socialservicesiteloactions,HEALTH AND HUMAN SERVICES,16.0,81,Regional
1159,6427e6ab1d35b64b458c781825c3e274,AFTER HOURS PROJECT OUTREACH AND EDUCATION IN SHELTERS,1204,BROADWAY,1204 BROADWAY,BROOKLYN,Brooklyn,3,11221.0,40.6920689632,-73.92693973989999,1004510.6170600001,191424.276978,3399422,3016130019,303,41,38700,BK35,HEALTH CARE,HEALTH PROMOTION AND DISEASE PREVENTION,OUTREACH AND EDUCATION IN SHELTERS,0,,,Non-public,AFTER HOURS PROJECT,,City,NYC Department of Health and Mental Hygiene,NYCDOHMH,moeo_socialservicesiteloactions,HEALTH AND HUMAN SERVICES,16.0,81,Regional
1160,de968236c6a8890fc1e9acee50cfc370,AFTER HOURS PROJECT SUPPORTIVE COUNSELING & FAMILY STABILIZATION SERVICES - SEP,1204,BROADWAY,1204 BROADWAY,BROOKLYN,Brooklyn,3,11221.0,40.6920689632,-73.92693973989999,1004510.6170600001,191424.276978,3399422,3016130019,303,41,38700,BK35,HEALTH CARE,OTHER HEALTH CARE,SUPPORTIVE COUNSELING & FAMILY STABILIZATION SERVICES - SEP,0,,,Non-public,AFTER HOURS PROJECT,,City,NYC Department of Health and Mental Hygiene,NYCDOHMH,moeo_socialservicesiteloactions,HEALTH AND HUMAN SERVICES,16.0,81,Regional
1167,123ab595d562680f2041324b8af869a0,AGAPE SOCIAL SERVICES BEULAH CHURCH,956,MARCY AVENUE,956 MARCY AVENUE,BROOKLYN,Brooklyn,3,11216.0,40.6806174873,-73.9466320511,999052.2103709999,187248.230868,3329701,3018500032,303,36,24900,BK75,HUMAN SERVICES,SOUP KITCHENS AND FOOD PANTRIES,FOOD PANTRY,0,,,Non-public,Agape Social Services Beulah Church,Non-public,,Non-public,Non-public,foodbankny_foodbanks,HEALTH AND HUMAN SERVICES,13.0,79,Local
1168,888de3aa26fb19dcfd575762e7579ab6,AGAPE SOCIAL SERVICES BEULAH MINISTRY,956,MARCY AVENUE,956 MARCY AVENUE,BROOKLYN,Brooklyn,3,11216.0,40.6806174873,-73.9466320511,999052.2103709999,187248.230868,3329701,3018500032,303,36,24900,BK75,HUMAN SERVICES,SOUP KITCHENS AND FOOD PANTRIES,SOUP KITCHEN,0,,,Non-public,Agape Social Services Beulah Ministry,Non-public,,Non-public,Non-public,foodbankny_foodbanks,HEALTH AND HUMAN SERVICES,13.0,79,Local
1169,e21df28a5325a5037620a625450237db,AGATHA HOUSE FOUNDATION,4471,MUNDY LANE,4471 MUNDY LANE,BRONX,Bronx,2,10466.0,40.902589194,-73.8411255642,1028168.9416799999,268155.547526,2071621,2051000037,212,12,44400,BX62,HUMAN SERVICES,SOUP KITCHENS AND FOOD PANTRIES,FOOD PANTRY,0,,,Non-public,Agatha House Foundation,Non-public,,Non-public,Non-public,foodbankny_foodbanks,HEALTH AND HUMAN SERVICES,11.0,47,Local
1170,742e287a8005e2589b157184f3f6fb08,AGATHA HOUSE FOUNDATION-MOBILE PANTRY,4471,MUNDY LANE,4471 MUNDY LANE,BRONX,Bronx,2,10466.0,40.902589194,-73.8411255642,1028168.9416799999,268155.547526,2071621,2051000037,212,12,44400,BX62,HUMAN SERVICES,SOUP KITCHENS AND FOOD PANTRIES,FOOD PANTRY,0,,,Non-public,Agatha House Foundation-Mobile Pantry,Non-public,,Non-public,Non-public,foodbankny_foodbanks,HEALTH AND HUMAN SERVICES,11.0,47,Local
1175,077e60965060d53b573c58905a60928a,AGUDATH ISRAEL OF AMERICA COMMUNITY SERVICES INC,5602,11 AVENUE,5602 11 AVENUE,BROOKLYN,Brooklyn,3,11219.0,40.6337440781,-74.001039273,983961.5431299999,170166.43514400002,3139989,3056880036,312,44,21600,BK88,HUMAN SERVICES,SENIOR SERVICES,SENIOR CENTER,0,,,Non-public,Agudath Israel Of America Community Services Inc,Non-public,City,NYC Department for the Aging,NYCDFTA,dfta_contracts,HEALTH AND HUMAN SERVICES,20.0,66,Local
1176,d9d27451daff2c78c5cadb0343d49532,AGUDATH ISRAEL OF AMERICA COMMUNITY SERVICES INC,817,AVENUE H,817 AVENUE H,BROOKLYN,Brooklyn,3,11230.0,40.629526441799996,-73.9683627841,993031.6663700001,168631.421317,3170160,3064960039,314,40,46000,BK42,HUMAN SERVICES,SENIOR SERVICES,SENIOR CENTER,0,,,Non-public,Agudath Israel Of America Community Services Inc,Non-public,City,NYC Department for the Aging,NYCDFTA,dfta_contracts,HEALTH AND HUMAN SERVICES,22.0,70,Local
1177,0a82d9e6454b260d2e1a6d21840fa267,AGUDATH ISRAEL OF AMERICA COMMUNITY SERVICES INC,90,BENNETT AVENUE,90 BENNETT AVENUE,NEW YORK,Manhattan,1,10033.0,40.8531531125,-73.9356436713,1002053.7799399999,250110.72702600004,1064436,1021800172,112,10,27100,MN35,HUMAN SERVICES,SENIOR SERVICES,SENIOR CENTER,0,,,Non-public,Agudath Israel Of America Community Services Inc,Non-public,City,NYC Department for the Aging,NYCDFTA,dfta_contracts,HEALTH AND HUMAN SERVICES,6.0,34,Local
1184,0d72278fcb283114a5a1a7032a7e8925,AHAVA MEDICAL AND REHABILITATION CENTER,,,,BROOKLYN,Brooklyn,3,11206.0,40.700390000000006,-73.94097099999999,1000617.5129999999,194452.94231800002,0,0,304,34,38900,BK78,HEALTH CARE,HOSPITALS AND CLINICS,DIAGNOSTIC AND TREATMENT CENTER EXTENSION CLINIC,0,,,Non-public,"Ahava Medical and Rehabilitation Center, LLC",Non-public,State,NYS Department of Health,NYSDOH,nysdoh_healthfacilities,HEALTH AND HUMAN SERVICES,14.0,83,Regional
1185,43a98290177ef0e8a3ad17b06c202d80,"AHAVA MEDICAL AND REHABILITATION CENTER, LLC",,,,BROOKLYN,Brooklyn,3,11210.0,40.622116,-73.945923,999262.031509,165934.648325,0,0,318,45,74800,BK43,HEALTH CARE,HOSPITALS AND CLINICS,DIAGNOSTIC AND TREATMENT CENTER,0,,,Non-public,"Ahava Medical and Rehabilitation Center, LLC",Non-public,State,NYS Department of Health,NYSDOH,nysdoh_healthfacilities,HEALTH AND HUMAN SERVICES,22.0,63,Regional
1193,03696fb693ecba78f3a4dac76f093f55,AHRC HEALTH CARE INC PRIMARY PREVENTION SERVICES,83,MAIDEN LANE,83 MAIDEN LANE,NEW YORK,Manhattan,1,10038.0,40.7075391205,-74.007350977,982211.945501,197052.151595,1001111,1000680007,101,1,1502,MN25,HEALTH CARE,HEALTH PROMOTION AND DISEASE PREVENTION,PRIMARY PREVENTION SERVICES,0,,,Non-public,AHRC HEALTH CARE INC,,City,NYC Department of Health and Mental Hygiene,NYCDOHMH,moeo_socialservicesiteloactions,HEALTH AND HUMAN SERVICES,2.0,1,Regional
1196,f7fb7a7c6fd56f39b251f89a9e2f3a3c,AICHHORN RTF - BROOKLYN,2050,DEAN STREET,2050 DEAN STREET,BROOKLYN,Brooklyn,3,11233.0,40.674850656,-73.9196630927,1006534.28424,185152.91813,3038839,3014450004,316,41,30300,BK79,HEALTH CARE,MENTAL HEALTH,INPATIENT MENTAL HEALTH,0,,,Non-public,August Aichhorn Ctr./Adoles. Resid. Care Inc,Non-public,State,NYS Office of Mental Health,NYSOMH,nysomh_mentalhealth,HEALTH AND HUMAN SERVICES,16.0,73,Regional
1198,c1df052f08757eab47ff2647ef0f3eb4,AID FOR AIDS INTERNATIONAL OUTREACH AND EDUCATION IN CBOS,217,CENTRE STREET,217 CENTRE STREET,NEW YORK,Manhattan,1,10013.0,40.7195923015,-73.999063563,984509.5797129999,201443.40753,1003057,1002340015,102,1,4500,MN24,HEALTH CARE,HEALTH PROMOTION AND DISEASE PREVENTION,OUTREACH AND EDUCATION IN CBOS,0,,,Non-public,AID FOR AIDS INTERNATIONAL,,City,NYC Department of Health and Mental Hygiene,NYCDOHMH,moeo_socialservicesiteloactions,HEALTH AND HUMAN SERVICES,2.0,5,Regional
1200,1ab16f13e3536e2bfbcd10ea754bf6ba,AIDS CENTER OF QUEENS COUNTY,16-00,CENTRAL AVENUE,16-00 CENTRAL AVENUE,FAR ROCKAWAY,Queens,4,11691.0,40.6053474567,-73.7523164255,1053025.32093,159918.028391,4297967,4155370147,414,31,103202,QN15,HUMAN SERVICES,SOUP KITCHENS AND FOOD PANTRIES,FOOD PANTRY,0,,,Non-public,Aids Center of Queens County,Non-public,,Non-public,Non-public,foodbankny_foodbanks,HEALTH AND HUMAN SERVICES,27.0,101,Local
1202,21467e5544df91cf8f77cdc40066cf3a,AIDS CENTER OF QUEENS COUNTY,161-21,JAMAICA AVENUE,161-21 JAMAICA AVENUE,JAMAICA,Queens,4,11432.0,40.70456,-73.798068,1040237.99276,196031.21574400002,4208875,4097607501,412,24,44601,QN61,HUMAN SERVICES,SOUP KITCHENS AND FOOD PANTRIES,FOOD PANTRY,0,,,Non-public,Aids Center of Queens County,Non-public,,Non-public,Non-public,foodbankny_foodbanks,HEALTH AND HUMAN SERVICES,28.0,103,Local
1203,830c15f00551b2b23b6d638ac1f5aaad,AIDS CENTER OF QUEENS COUNTY,62-07,WOODSIDE AVENUE,62-07 WOODSIDE AVENUE,WOODSIDE,Queens,4,11377.0,40.744729286100004,-73.9022253701,1011342.83507,210616.716799,4307300,4012940020,402,26,26100,QN63,HUMAN SERVICES,SOUP KITCHENS AND FOOD PANTRIES,FOOD PANTRY,0,,,Non-public,Aids Center of Queens County,Non-public,,Non-public,Non-public,foodbankny_foodbanks,HEALTH AND HUMAN SERVICES,30.0,108,Local
1204,93fd3de42ec64aaab97045bf78b6496a,AIDS CENTER OF QUEENS COUNTY INC CITY COUNCIL INITIATIVES [574],161-21,JAMAICA AVENUE,161-21 JAMAICA AVENUE,JAMAICA,Queens,4,11432.0,40.70456,-73.798068,1040237.99276,196031.21574400002,4208875,4097607501,412,24,44601,QN61,HEALTH CARE,OTHER HEALTH CARE,HEALTH FACILITY,0,,,Non-public,AIDS CENTER OF QUEENS COUNTY INC,,City,NYC Department of Health and Mental Hygiene,NYCDOHMH,moeo_socialservicesiteloactions,HEALTH AND HUMAN SERVICES,28.0,103,Regional
1205,3b25d1899271b03447f608d148c83095,AIDS CENTER OF QUEENS COUNTY INC EARLY INTERVENTION SERVICES: PRIORITY POPULATIONS TESTING IN NON-CLINICAL SETTINGS,100-10,ASTORIA BOULEVARD,100-10 ASTORIA BOULEVARD,EAST ELMHURST,Queens,4,11369.0,40.761480206,-73.868911448,1020564.80851,216731.671409,4041756,4016880002,403,21,36300,QN27,HEALTH CARE,HEALTH PROMOTION AND DISEASE PREVENTION,EARLY INTERVENTION SERVICES: PRIORITY POPULATIONS TESTING IN NON-CLINICAL SETTINGS,0,,,Non-public,AIDS CENTER OF QUEENS COUNTY INC,,City,NYC Department of Health and Mental Hygiene,NYCDOHMH,moeo_socialservicesiteloactions,HEALTH AND HUMAN SERVICES,30.0,115,Regional
1206,3ef6c5bc3d4210a25e92bbf237430ac9,AIDS CENTER OF QUEENS COUNTY INC EARLY INTERVENTION SERVICES: PRIORITY POPULATIONS TESTING IN NON-CLINICAL SETTINGS,109-20,34 AVENUE,109-20 34 AVENUE,CORONA,Queens,4,11368.0,40.7561018244,-73.8588101603,1023366.27395,214776.502746,4043646,4017530011,403,21,38100,QN26,HEALTH CARE,HEALTH PROMOTION AND DISEASE PREVENTION,EARLY INTERVENTION SERVICES: PRIORITY POPULATIONS TESTING IN NON-CLINICAL SETTINGS,0,,,Non-public,AIDS CENTER OF QUEENS COUNTY INC,,City,NYC Department of Health and Mental Hygiene,NYCDOHMH,moeo_socialservicesiteloactions,HEALTH AND HUMAN SERVICES,24.0,115,Regional
1207,eb9c2bf13568742b5114736538434099,AIDS CENTER OF QUEENS COUNTY INC EARLY INTERVENTION SERVICES: PRIORITY POPULATIONS TESTING IN NON-CLINICAL SETTINGS,,FOAM PLACE,,FAR ROCKAWAY,Queens,4,11691.0,40.6048730687,-73.7512965641,1053309.0,159745.999669,0,4155590042,414,31,103202,QN15,HEALTH CARE,HEALTH PROMOTION AND DISEASE PREVENTION,EARLY INTERVENTION SERVICES: PRIORITY POPULATIONS TESTING IN NON-CLINICAL SETTINGS,0,,,Non-public,AIDS CENTER OF QUEENS COUNTY INC,,City,NYC Department of Health and Mental Hygiene,NYCDOHMH,moeo_socialservicesiteloactions,HEALTH AND HUMAN SERVICES,27.0,101,Regional
1208,04dc87b32dd42f06a1f0f19041e6632b,AIDS CENTER OF QUEENS COUNTY INC EARLY INTERVENTION SERVICES: PRIORITY POPULATIONS TESTING IN NON-CLINICAL SETTINGS,110-31,MERRICK BOULEVARD,110-31 MERRICK BOULEVARD,JAMAICA,Queens,4,11433.0,40.695313,-73.781497,1044840.88938,192673.295124,0,4102700059,412,27,43400,QN01,HEALTH CARE,HEALTH PROMOTION AND DISEASE PREVENTION,EARLY INTERVENTION SERVICES: PRIORITY POPULATIONS TESTING IN NON-CLINICAL SETTINGS,0,,,Non-public,AIDS CENTER OF QUEENS COUNTY INC,,City,NYC Department of Health and Mental Hygiene,NYCDOHMH,moeo_socialservicesiteloactions,HEALTH AND HUMAN SERVICES,29.0,113,Regional
1209,466ce6edf1644f6e20137c51815bef14,AIDS CENTER OF QUEENS COUNTY INC EARLY INTERVENTION SERVICES: PRIORITY POPULATIONS TESTING IN NON-CLINICAL SETTINGS,116-20,FRANCIS LEWIS BOULEVARD,116-20 FRANCIS LEWIS BOULEVARD,CAMBRIA HEIGHTS,Queens,4,11411.0,40.6969342189,-73.74690847789999,1054430.5563100001,193289.76906199998,4430414,4110770021,412,27,53200,QN34,HEALTH CARE,HEALTH PROMOTION AND DISEASE PREVENTION,EARLY INTERVENTION SERVICES: PRIORITY POPULATIONS TESTING IN NON-CLINICAL SETTINGS,0,,,Non-public,AIDS CENTER OF QUEENS COUNTY INC,,City,NYC Department of Health and Mental Hygiene,NYCDOHMH,moeo_socialservicesiteloactions,HEALTH AND HUMAN SERVICES,29.0,113,Regional
1210,d77d0c0d2a79857030cc9d114997f5fa,AIDS CENTER OF QUEENS COUNTY INC EARLY INTERVENTION SERVICES: PRIORITY POPULATIONS TESTING IN NON-CLINICAL SETTINGS,161-21,JAMAICA AVENUE,161-21 JAMAICA AVENUE,JAMAICA,Queens,4,11432.0,40.70456,-73.798068,1040237.99276,196031.21574400002,4208875,4097607501,412,24,44601,QN61,HEALTH CARE,HEALTH PROMOTION AND DISEASE PREVENTION,EARLY INTERVENTION SERVICES: PRIORITY POPULATIONS TESTING IN NON-CLINICAL SETTINGS,0,,,Non-public,AIDS CENTER OF QUEENS COUNTY INC,,City,NYC Department of Health and Mental Hygiene,NYCDOHMH,moeo_socialservicesiteloactions,HEALTH AND HUMAN SERVICES,28.0,103,Regional
1211,59f3fa544bd2e1bc56162dd761bc5b18,AIDS CENTER OF QUEENS COUNTY INC EARLY INTERVENTION SERVICES: PRIORITY POPULATIONS TESTING IN NON-CLINICAL SETTINGS,162-04,SOUTH ROAD,162-04 SOUTH ROAD,JAMAICA,Queens,4,11433.0,40.6992568683,-73.7941368372,1041332.49196,194101.66908800002,4215796,4101290003,412,28,25400,QN01,HEALTH CARE,HEALTH PROMOTION AND DISEASE PREVENTION,EARLY INTERVENTION SERVICES: PRIORITY POPULATIONS TESTING IN NON-CLINICAL SETTINGS,0,,,Non-public,AIDS CENTER OF QUEENS COUNTY INC,,City,NYC Department of Health and Mental Hygiene,NYCDOHMH,moeo_socialservicesiteloactions,HEALTH AND HUMAN SERVICES,28.0,103,Regional
1212,68a552b6a2c08c20525ad1c708bcea40,AIDS CENTER OF QUEENS COUNTY INC EARLY INTERVENTION SERVICES: PRIORITY POPULATIONS TESTING IN NON-CLINICAL SETTINGS,172-17,LINDEN BOULEVARD,172-17 LINDEN BOULEVARD,JAMAICA,Queens,4,11434.0,40.6924207779,-73.7776777032,1045902.6526,191622.241726,4448875,4102870062,412,27,43200,QN08,HEALTH CARE,HEALTH PROMOTION AND DISEASE PREVENTION,EARLY INTERVENTION SERVICES: PRIORITY POPULATIONS TESTING IN NON-CLINICAL SETTINGS,0,,,Non-public,AIDS CENTER OF QUEENS COUNTY INC,,City,NYC Department of Health and Mental Hygiene,NYCDOHMH,moeo_socialservicesiteloactions,HEALTH AND HUMAN SERVICES,29.0,113,Regional
1213,46b101e6b6e1de365fcb8a43e8934b47,AIDS CENTER OF QUEENS COUNTY INC EARLY INTERVENTION SERVICES: PRIORITY POPULATIONS TESTING IN NON-CLINICAL SETTINGS,179-09,JAMAICA AVENUE,179-09 JAMAICA AVENUE,JAMAICA,Queens,4,11432.0,40.7084908683,-73.7819435105,1044705.12088,197474.06221,4211561,4098950001,412,27,46800,QN61,HEALTH CARE,HEALTH PROMOTION AND DISEASE PREVENTION,EARLY INTERVENTION SERVICES: PRIORITY POPULATIONS TESTING IN NON-CLINICAL SETTINGS,0,,,Non-public,AIDS CENTER OF QUEENS COUNTY INC,,City,NYC Department of Health and Mental Hygiene,NYCDOHMH,moeo_socialservicesiteloactions,HEALTH AND HUMAN SERVICES,29.0,103,Regional
1214,8b57d637f2529c08666f883c543660de,AIDS CENTER OF QUEENS COUNTY INC EARLY INTERVENTION SERVICES: PRIORITY POPULATIONS TESTING IN NON-CLINICAL SETTINGS,222-05,56 AVENUE,222-05 56 AVENUE,OAKLAND GARDENS,Queens,4,11364.0,40.755951165999996,-73.7565431787,1051699.16728,214783.819006,4439440,4074900002,411,23,138501,QN42,HEALTH CARE,HEALTH PROMOTION AND DISEASE PREVENTION,EARLY INTERVENTION SERVICES: PRIORITY POPULATIONS TESTING IN NON-CLINICAL SETTINGS,0,,,Non-public,AIDS CENTER OF QUEENS COUNTY INC,,City,NYC Department of Health and Mental Hygiene,NYCDOHMH,moeo_socialservicesiteloactions,HEALTH AND HUMAN SERVICES,26.0,111,Regional
1215,f37ee8866cc1adb56d0b5f7bdeebe3fd,AIDS CENTER OF QUEENS COUNTY INC EARLY INTERVENTION SERVICES: PRIORITY POPULATIONS TESTING IN NON-CLINICAL SETTINGS,27-08,8 STREET,27-08 8 STREET,ASTORIA,Queens,4,11102.0,40.7741558595,-73.93186324050001,1003121.9999899999,221329.999644,0,0,401,22,8700,QN71,HEALTH CARE,HEALTH PROMOTION AND DISEASE PREVENTION,EARLY INTERVENTION SERVICES: PRIORITY POPULATIONS TESTING IN NON-CLINICAL SETTINGS,0,,,Non-public,AIDS CENTER OF QUEENS COUNTY INC,,City,NYC Department of Health and Mental Hygiene,NYCDOHMH,moeo_socialservicesiteloactions,HEALTH AND HUMAN SERVICES,30.0,114,Regional
1216,69dc884fc67cedfb725faef305c7f2fa,AIDS CENTER OF QUEENS COUNTY INC EARLY INTERVENTION SERVICES: PRIORITY POPULATIONS TESTING IN NON-CLINICAL SETTINGS,31-10,THOMSON AVENUE,31-10 THOMSON AVENUE,LONG ISLAND CITY,Queens,4,11101.0,40.7439479416,-73.9350647454,1002243.43021,210323.59695799998,4003534,4002780001,402,26,17900,QN31,HEALTH CARE,HEALTH PROMOTION AND DISEASE PREVENTION,EARLY INTERVENTION SERVICES: PRIORITY POPULATIONS TESTING IN NON-CLINICAL SETTINGS,0,,,Non-public,AIDS CENTER OF QUEENS COUNTY INC,,City,NYC Department of Health and Mental Hygiene,NYCDOHMH,moeo_socialservicesiteloactions,HEALTH AND HUMAN SERVICES,24.0,108,Regional
1217,5b55619b007ff865d5691819c2313821,AIDS CENTER OF QUEENS COUNTY INC EARLY INTERVENTION SERVICES: PRIORITY POPULATIONS TESTING IN NON-CLINICAL SETTINGS,,ROCKAWAY BEACH,,FAR ROCKAWAY,Queens,4,11694.0,40.570291,-73.85092900000001,1025664.93034,147084.08527100002,0,4162860101,414,32,92800,QN10,HEALTH CARE,HEALTH PROMOTION AND DISEASE PREVENTION,EARLY INTERVENTION SERVICES: PRIORITY POPULATIONS TESTING IN NON-CLINICAL SETTINGS,0,,,Non-public,AIDS CENTER OF QUEENS COUNTY INC,,City,NYC Department of Health and Mental Hygiene,NYCDOHMH,moeo_socialservicesiteloactions,HEALTH AND HUMAN SERVICES,,0,Regional
1218,9b05915bd30558cab4a87db3af4145fe,AIDS CENTER OF QUEENS COUNTY INC EARLY INTERVENTION SERVICES: PRIORITY POPULATIONS TESTING IN NON-CLINICAL SETTINGS,62-07,WOODSIDE AVENUE,62-07 WOODSIDE AVENUE,WOODSIDE,Queens,4,11377.0,40.744729286100004,-73.9022253701,1011342.83507,210616.716799,4307300,4012940020,402,26,26100,QN63,HEALTH CARE,HEALTH PROMOTION AND DISEASE PREVENTION,EARLY INTERVENTION SERVICES: PRIORITY POPULATIONS TESTING IN NON-CLINICAL SETTINGS,0,,,Non-public,AIDS CENTER OF QUEENS COUNTY INC,,City,NYC Department of Health and Mental Hygiene,NYCDOHMH,moeo_socialservicesiteloactions,HEALTH AND HUMAN SERVICES,30.0,108,Regional
1219,b38081ac38fb080cf60aa584b4a84848,AIDS CENTER OF QUEENS COUNTY INC EARLY INTERVENTION SERVICES: PRIORITY POPULATIONS TESTING IN NON-CLINICAL SETTINGS,62-21,MAIN STREET,62-21 MAIN STREET,FLUSHING,Queens,4,11367.0,40.7407356505,-73.8250521924,1032729.9999899999,209194.99965399998,0,0,408,24,80302,QN62,HEALTH CARE,HEALTH PROMOTION AND DISEASE PREVENTION,EARLY INTERVENTION SERVICES: PRIORITY POPULATIONS TESTING IN NON-CLINICAL SETTINGS,0,,,Non-public,AIDS CENTER OF QUEENS COUNTY INC,,City,NYC Department of Health and Mental Hygiene,NYCDOHMH,moeo_socialservicesiteloactions,HEALTH AND HUMAN SERVICES,25.0,107,Regional
1220,ebe2001d645a82909baa226f84b3125c,AIDS CENTER OF QUEENS COUNTY INC EARLY INTERVENTION SERVICES: PRIORITY POPULATIONS TESTING IN NON-CLINICAL SETTINGS,65-30,KISSENA BOULEVARD,65-30 KISSENA BOULEVARD,FLUSHING,Queens,4,11367.0,40.7361814308,-73.8161609916,1035197.3301799999,207540.802869,4141870,4065170001,408,24,80900,QN37,HEALTH CARE,HEALTH PROMOTION AND DISEASE PREVENTION,EARLY INTERVENTION SERVICES: PRIORITY POPULATIONS TESTING IN NON-CLINICAL SETTINGS,0,,,Non-public,AIDS CENTER OF QUEENS COUNTY INC,,City,NYC Department of Health and Mental Hygiene,NYCDOHMH,moeo_socialservicesiteloactions,HEALTH AND HUMAN SERVICES,25.0,107,Regional
1221,7df4885f516e6019ab279f307d22751b,AIDS CENTER OF QUEENS COUNTY INC EARLY INTERVENTION SERVICES: PRIORITY POPULATIONS TESTING IN NON-CLINICAL SETTINGS,78-19,ROOSEVELT AVENUE,78-19 ROOSEVELT AVENUE,JACKSON HEIGHTS,Queens,4,11372.0,40.7475700238,-73.8869065426,1015586.2631,211656.796698,4029939,4012890038,403,25,28500,QN28,HEALTH CARE,HEALTH PROMOTION AND DISEASE PREVENTION,EARLY INTERVENTION SERVICES: PRIORITY POPULATIONS TESTING IN NON-CLINICAL SETTINGS,0,,,Non-public,AIDS CENTER OF QUEENS COUNTY INC,,City,NYC Department of Health and Mental Hygiene,NYCDOHMH,moeo_socialservicesiteloactions,HEALTH AND HUMAN SERVICES,30.0,115,Regional
1222,c07f0e590245df3551457085efad8725,AIDS CENTER OF QUEENS COUNTY INC EARLY INTERVENTION SERVICES: PRIORITY POPULATIONS TESTING IN NON-CLINICAL SETTINGS,80-45,WINCHESTER BOULEVARD,80-45 WINCHESTER BOULEVARD,QUEENS VILLAGE,Queens,4,11427.0,40.737065674200004,-73.72897899649999,1059357.02727,207925.687994,4537294,4078800400,413,23,156700,QN43,HEALTH CARE,HEALTH PROMOTION AND DISEASE PREVENTION,EARLY INTERVENTION SERVICES: PRIORITY POPULATIONS TESTING IN NON-CLINICAL SETTINGS,0,,,Non-public,AIDS CENTER OF QUEENS COUNTY INC,,City,NYC Department of Health and Mental Hygiene,NYCDOHMH,moeo_socialservicesiteloactions,HEALTH AND HUMAN SERVICES,26.0,105,Regional
1223,eaa7daed23393f7160f395e6e82d8013,AIDS CENTER OF QUEENS COUNTY INC EARLY INTERVENTION SERVICES: PRIORITY POPULATIONS TESTING IN NON-CLINICAL SETTINGS,94-20,GUY R BREWER BOULEVARD,94-20 GUY R BREWER BOULEVARD,JAMAICA,Queens,4,11433.0,40.7015322525,-73.7961579409,1040770.14482,194929.346421,4215630,4101040043,412,27,24600,QN61,HEALTH CARE,HEALTH PROMOTION AND DISEASE PREVENTION,EARLY INTERVENTION SERVICES: PRIORITY POPULATIONS TESTING IN NON-CLINICAL SETTINGS,0,,,Non-public,AIDS CENTER OF QUEENS COUNTY INC,,City,NYC Department of Health and Mental Hygiene,NYCDOHMH,moeo_socialservicesiteloactions,HEALTH AND HUMAN SERVICES,28.0,103,Regional
1224,f6ade2e503bcb395300a076a8c1b03ac,AIDS CENTER OF QUEENS COUNTY INC EARLY INTERVENTION SERVICES: PRIORITY POPULATIONS TESTING IN NON-CLINICAL SETTINGS,,,,JACKSON HEIGHTS,Queens,4,11372.0,40.748416233,-73.87647943399999,1018475.0000100001,211968.999644,0,0,404,21,27100,QN29,HEALTH CARE,HEALTH PROMOTION AND DISEASE PREVENTION,EARLY INTERVENTION SERVICES: PRIORITY POPULATIONS TESTING IN NON-CLINICAL SETTINGS,0,,,Non-public,AIDS CENTER OF QUEENS COUNTY INC,,City,NYC Department of Health and Mental Hygiene,NYCDOHMH,moeo_socialservicesiteloactions,HEALTH AND HUMAN SERVICES,24.0,110,Regional
1225,7265f2991b3e77644c1fdd9711b5dd00,AIDS CENTER OF QUEENS COUNTY INC FAITH-BASED INITIATIVE,161-21,JAMAICA AVENUE,161-21 JAMAICA AVENUE,JAMAICA,Queens,4,11432.0,40.70456,-73.798068,1040237.99276,196031.21574400002,4208875,4097607501,412,24,44601,QN61,HEALTH CARE,HEALTH PROMOTION AND DISEASE PREVENTION,HARM REDUCTION CENTER,0,,,Non-public,AIDS CENTER OF QUEENS COUNTY INC,,City,NYC Department of Health and Mental Hygiene,NYCDOHMH,moeo_socialservicesiteloactions,HEALTH AND HUMAN SERVICES,28.0,103,Regional
1226,6e48d72b830876cd9b6d68d0d0088491,AIDS CENTER OF QUEENS COUNTY INC FOOD AND NUTRITION,161-21,JAMAICA AVENUE,161-21 JAMAICA AVENUE,JAMAICA,Queens,4,11432.0,40.70456,-73.798068,1040237.99276,196031.21574400002,4208875,4097607501,412,24,44601,QN61,HUMAN SERVICES,SOUP KITCHENS AND FOOD PANTRIES,SOUP KITCHEN,0,,,Non-public,AIDS CENTER OF QUEENS COUNTY INC,,City,NYC Department of Health and Mental Hygiene,NYCDOHMH,moeo_socialservicesiteloactions,HEALTH AND HUMAN SERVICES,28.0,103,Local
1227,12fefb6431eaad1c799956a4d6cdb766,AIDS CENTER OF QUEENS COUNTY INC HARM REDUCTION SERVICES,16-03,CENTRAL AVENUE,16-03 CENTRAL AVENUE,FAR ROCKAWAY,Queens,4,11691.0,40.6049159107,-73.7517349738,1053187.22019,159761.262712,4298242,4155590042,414,31,103202,QN15,HEALTH CARE,HEALTH PROMOTION AND DISEASE PREVENTION,HARM REDUCTION SERVICES,0,,,Non-public,AIDS CENTER OF QUEENS COUNTY INC,,City,NYC Department of Health and Mental Hygiene,NYCDOHMH,moeo_socialservicesiteloactions,HEALTH AND HUMAN SERVICES,27.0,101,Regional
1228,22cd80af422d7108f82d4c4f60e6d5bd,AIDS CENTER OF QUEENS COUNTY INC HARM REDUCTION SERVICES,161-21,JAMAICA AVENUE,161-21 JAMAICA AVENUE,JAMAICA,Queens,4,11432.0,40.70456,-73.798068,1040237.99276,196031.21574400002,4208875,4097607501,412,24,44601,QN61,HEALTH CARE,HEALTH PROMOTION AND DISEASE PREVENTION,HARM REDUCTION SERVICES,0,,,Non-public,AIDS CENTER OF QUEENS COUNTY INC,,City,NYC Department of Health and Mental Hygiene,NYCDOHMH,moeo_socialservicesiteloactions,HEALTH AND HUMAN SERVICES,28.0,103,Regional
1229,8826214a29c2e51c5fb20518ccd76bfc,AIDS CENTER OF QUEENS COUNTY INC HARM REDUCTION SERVICES,89-31,161 STREET,89-31 161 STREET,JAMAICA,Queens,4,11432.0,40.7055975085,-73.7991580358,1039934.90154,196408.515369,4208869,4097600027,412,24,44601,QN61,HEALTH CARE,HEALTH PROMOTION AND DISEASE PREVENTION,HARM REDUCTION SERVICES,0,,,Non-public,AIDS CENTER OF QUEENS COUNTY INC,,City,NYC Department of Health and Mental Hygiene,NYCDOHMH,moeo_socialservicesiteloactions,HEALTH AND HUMAN SERVICES,28.0,103,Regional
1230,15b3927080b4df9aa3351482880ae80b,AIDS CENTER OF QUEENS COUNTY INC HEP-C PEER NAVIGATION [574],161-21,JAMAICA AVENUE,161-21 JAMAICA AVENUE,JAMAICA,Queens,4,11432.0,40.70456,-73.798068,1040237.99276,196031.21574400002,4208875,4097607501,412,24,44601,QN61,HEALTH CARE,HEALTH PROMOTION AND DISEASE PREVENTION,HEP-C PEER NAVIGATION [574],0,,,Non-public,AIDS CENTER OF QUEENS COUNTY INC,,City,NYC Department of Health and Mental Hygiene,NYCDOHMH,moeo_socialservicesiteloactions,HEALTH AND HUMAN SERVICES,28.0,103,Regional
1231,172c2090cb73df8a977fa43240d4ccb2,AIDS CENTER OF QUEENS COUNTY INC LEGAL SERVICES NYC,161-21,JAMAICA AVENUE,161-21 JAMAICA AVENUE,JAMAICA,Queens,4,11432.0,40.70456,-73.798068,1040237.99276,196031.21574400002,4208875,4097607501,412,24,44601,QN61,HUMAN SERVICES,LEGAL AND INTERVENTION SERVICES,LEGAL SERVICES NYC,0,,,Non-public,AIDS CENTER OF QUEENS COUNTY INC,,City,NYC Department of Health and Mental Hygiene,NYCDOHMH,moeo_socialservicesiteloactions,HEALTH AND HUMAN SERVICES,28.0,103,Local
1232,956288245d38f117401ab3f989e8240b,AIDS CENTER OF QUEENS COUNTY INC MENTAL HEALTH SERVICES,16-03,CENTRAL AVENUE,16-03 CENTRAL AVENUE,FAR ROCKAWAY,Queens,4,11691.0,40.6049159107,-73.7517349738,1053187.22019,159761.262712,4298242,4155590042,414,31,103202,QN15,HEALTH CARE,MENTAL HEALTH,SUPPORT MENTAL HEALTH,0,,,Non-public,AIDS CENTER OF QUEENS COUNTY INC,,City,NYC Department of Health and Mental Hygiene,NYCDOHMH,moeo_socialservicesiteloactions,HEALTH AND HUMAN SERVICES,27.0,101,Regional
1233,d29754af9348a80a3e5ac85522bb88f2,AIDS CENTER OF QUEENS COUNTY INC MENTAL HEALTH SERVICES,161-21,JAMAICA AVENUE,161-21 JAMAICA AVENUE,JAMAICA,Queens,4,11432.0,40.70456,-73.798068,1040237.99276,196031.21574400002,4208875,4097607501,412,24,44601,QN61,HEALTH CARE,MENTAL HEALTH,SUPPORT MENTAL HEALTH,0,,,Non-public,AIDS CENTER OF QUEENS COUNTY INC,,City,NYC Department of Health and Mental Hygiene,NYCDOHMH,moeo_socialservicesiteloactions,HEALTH AND HUMAN SERVICES,28.0,103,Regional
1234,192ca08e8ba8afabb19cca8d00e203c7,AIDS CENTER OF QUEENS COUNTY INC MENTAL HEALTH SERVICES,62-07,WOODSIDE AVENUE,62-07 WOODSIDE AVENUE,WOODSIDE,Queens,4,11377.0,40.744729286100004,-73.9022253701,1011342.83507,210616.716799,4307300,4012940020,402,26,26100,QN63,HEALTH CARE,MENTAL HEALTH,SUPPORT MENTAL HEALTH,0,,,Non-public,AIDS CENTER OF QUEENS COUNTY INC,,City,NYC Department of Health and Mental Hygiene,NYCDOHMH,moeo_socialservicesiteloactions,HEALTH AND HUMAN SERVICES,30.0,108,Regional
1235,e0fed79ed024e3b545442ed94ddd9d9c,AIDS CENTER OF QUEENS COUNTY INC MENTAL HEALTH SERVICES,89-31,161 STREET,89-31 161 STREET,JAMAICA,Queens,4,11432.0,40.7055975085,-73.7991580358,1039934.90154,196408.515369,4208869,4097600027,412,24,44601,QN61,HEALTH CARE,MENTAL HEALTH,SUPPORT MENTAL HEALTH,0,,,Non-public,AIDS CENTER OF QUEENS COUNTY INC,,City,NYC Department of Health and Mental Hygiene,NYCDOHMH,moeo_socialservicesiteloactions,HEALTH AND HUMAN SERVICES,28.0,103,Regional
1236,78847ff8615e46c9e563aabbccb4ce55,AIDS CENTER OF QUEENS COUNTY INC OUTREACH AND EDUCATION IN SHELTERS,161-21,JAMAICA AVENUE,161-21 JAMAICA AVENUE,JAMAICA,Queens,4,11432.0,40.70456,-73.798068,1040237.99276,196031.21574400002,4208875,4097607501,412,24,44601,QN61,HEALTH CARE,HEALTH PROMOTION AND DISEASE PREVENTION,OUTREACH AND EDUCATION IN SHELTERS,0,,,Non-public,AIDS CENTER OF QUEENS COUNTY INC,,City,NYC Department of Health and Mental Hygiene,NYCDOHMH,moeo_socialservicesiteloactions,HEALTH AND HUMAN SERVICES,28.0,103,Regional
1237,ff8339320142ad5793ee626264a7b63b,AIDS CENTER OF QUEENS COUNTY INC PREP EDUCATION AT NEEDLE EXCHANGE SITES,161-21,JAMAICA AVENUE,161-21 JAMAICA AVENUE,JAMAICA,Queens,4,11432.0,40.70456,-73.798068,1040237.99276,196031.21574400002,4208875,4097607501,412,24,44601,QN61,HEALTH CARE,HEALTH PROMOTION AND DISEASE PREVENTION,PREP EDUCATION AT NEEDLE EXCHANGE SITES,0,,,Non-public,AIDS CENTER OF QUEENS COUNTY INC,,City,NYC Department of Health and Mental Hygiene,NYCDOHMH,moeo_socialservicesiteloactions,HEALTH AND HUMAN SERVICES,28.0,103,Regional
1238,8a625bd9fd35092dc3a116fc86fc0b31,AIDS CENTER OF QUEENS COUNTY INC SUPPORTIVE COUNSELING & FAMILY STABILIZATION SERVICES - SEP,161-21,JAMAICA AVENUE,161-21 JAMAICA AVENUE,JAMAICA,Queens,4,11432.0,40.70456,-73.798068,1040237.99276,196031.21574400002,4208875,4097607501,412,24,44601,QN61,HEALTH CARE,OTHER HEALTH CARE,SUPPORTIVE COUNSELING & FAMILY STABILIZATION SERVICES - SEP,0,,,Non-public,AIDS CENTER OF QUEENS COUNTY INC,,City,NYC Department of Health and Mental Hygiene,NYCDOHMH,moeo_socialservicesiteloactions,HEALTH AND HUMAN SERVICES,28.0,103,Regional
1239,fbcf4dd3979608847465839fabd646b0,AIDS CENTER OF QUEENS COUNTY INC SUPPORTIVE COUNSELING & FAMILY STABILIZATION SERVICES - SEP,62-07,WOODSIDE AVENUE,62-07 WOODSIDE AVENUE,WOODSIDE,Queens,4,11377.0,40.744729286100004,-73.9022253701,1011342.83507,210616.716799,4307300,4012940020,402,26,26100,QN63,HEALTH CARE,OTHER HEALTH CARE,SUPPORTIVE COUNSELING & FAMILY STABILIZATION SERVICES - SEP,0,,,Non-public,AIDS CENTER OF QUEENS COUNTY INC,,City,NYC Department of Health and Mental Hygiene,NYCDOHMH,moeo_socialservicesiteloactions,HEALTH AND HUMAN SERVICES,30.0,108,Regional
1240,a36dd2795e950822649720b1ad347e6a,AIDS CENTER OF QUEENS COUNTY INC SUPPORTIVE COUNSELING & FAMILY STABILIZATION SERVICES - SEP,89-31,161 STREET,89-31 161 STREET,JAMAICA,Queens,4,11432.0,40.7055975085,-73.7991580358,1039934.90154,196408.515369,4208869,4097600027,412,24,44601,QN61,HEALTH CARE,OTHER HEALTH CARE,SUPPORTIVE COUNSELING & FAMILY STABILIZATION SERVICES - SEP,0,,,Non-public,AIDS CENTER OF QUEENS COUNTY INC,,City,NYC Department of Health and Mental Hygiene,NYCDOHMH,moeo_socialservicesiteloactions,HEALTH AND HUMAN SERVICES,28.0,103,Regional
1241,0392949f4f52045affe43dd6db2093b4,AIDS CENTER OF QUEENS COUNTY INC.,161-21,JAMAICA AVENUE,161-21 JAMAICA AVENUE,JAMAICA,Queens,4,11432.0,40.70456,-73.798068,1040237.99276,196031.21574400002,4208875,4097607501,412,24,44601,QN61,HEALTH CARE,MENTAL HEALTH,OUTPATIENT MENTAL HEALTH,0,,,Non-public,AIDS Center of Queens County Inc.,Non-public,State,NYS Office of Mental Health,NYSOMH,nysomh_mentalhealth,HEALTH AND HUMAN SERVICES,28.0,103,Regional
1242,487cf997c6c2f308e128137bbdd69090,AIDS SERVICE CENTER OF LOWER MANHATTAN INC FOOD AND NUTRITION,1870,PELHAM PARKWAY SOUTH,1870 PELHAM PARKWAY SOUTH,BRONX,Bronx,2,10461.0,40.855237601199995,-73.8307178903,1031079.35515,250908.89492399996,2047795,2042500026,210,13,30000,BX10,HUMAN SERVICES,SOUP KITCHENS AND FOOD PANTRIES,SOUP KITCHEN,0,,,Non-public,AIDS SERVICE CENTER OF LOWER MANHATTAN INC,,City,NYC Department of Health and Mental Hygiene,NYCDOHMH,moeo_socialservicesiteloactions,HEALTH AND HUMAN SERVICES,8.0,45,Local
1243,d5ce58de33eed75dcdd159292ea9fafc,AIDS SERVICE CENTER OF LOWER MANHATTAN INC FOOD AND NUTRITION,2036,AMSTERDAM AVENUE,2036 AMSTERDAM AVENUE,NEW YORK,Manhattan,1,10032.0,40.8350123354,-73.9408498492,1000617.98628,243500.345556,1062836,1021190036,112,7,24500,MN36,HUMAN SERVICES,SOUP KITCHENS AND FOOD PANTRIES,SOUP KITCHEN,0,,,Non-public,AIDS SERVICE CENTER OF LOWER MANHATTAN INC,,City,NYC Department of Health and Mental Hygiene,NYCDOHMH,moeo_socialservicesiteloactions,HEALTH AND HUMAN SERVICES,6.0,33,Local
1244,d6dedb803133cf033d3054b9b649b270,AIDS SERVICE CENTER OF LOWER MANHATTAN INC FOOD AND NUTRITION,64,WEST 35 STREET,64 WEST 35 STREET,NEW YORK,Manhattan,1,10001.0,40.7498790124,-73.9868374213,987897.000076,212478.080939,1015868,1008360007,105,4,7600,MN17,HUMAN SERVICES,SOUP KITCHENS AND FOOD PANTRIES,SOUP KITCHEN,0,,,Non-public,AIDS SERVICE CENTER OF LOWER MANHATTAN INC,,City,NYC Department of Health and Mental Hygiene,NYCDOHMH,moeo_socialservicesiteloactions,HEALTH AND HUMAN SERVICES,2.0,14,Local
1245,188a0794ef43a7ded175bc543c52873b,AIDS SERVICE CENTER OF LOWER MANHATTAN INC HARM REDUCTION SERVICES,1385,FULTON AVENUE,1385 FULTON AVENUE,BRONX,Bronx,2,10456.0,40.8342877042,-73.902327676,1011278.10456,243245.877683,2115578,2029250050,203,16,14701,BX01,HEALTH CARE,HEALTH PROMOTION AND DISEASE PREVENTION,HARM REDUCTION SERVICES,0,,,Non-public,AIDS SERVICE CENTER OF LOWER MANHATTAN INC,,City,NYC Department of Health and Mental Hygiene,NYCDOHMH,moeo_socialservicesiteloactions,HEALTH AND HUMAN SERVICES,9.0,42,Regional
1246,e911ca8b11e503529aab8d40a3a0a9cf,AIDS SERVICE CENTER OF LOWER MANHATTAN INC HARM REDUCTION SERVICES,1870,PELHAM PARKWAY SOUTH,1870 PELHAM PARKWAY SOUTH,BRONX,Bronx,2,10461.0,40.855237601199995,-73.8307178903,1031079.35515,250908.89492399996,2047795,2042500026,210,13,30000,BX10,HEALTH CARE,HEALTH PROMOTION AND DISEASE PREVENTION,HARM REDUCTION SERVICES,0,,,Non-public,AIDS SERVICE CENTER OF LOWER MANHATTAN INC,,City,NYC Department of Health and Mental Hygiene,NYCDOHMH,moeo_socialservicesiteloactions,HEALTH AND HUMAN SERVICES,8.0,45,Regional
1247,41959d519862115e11cbfb58913bb988,AIDS SERVICE CENTER OF LOWER MANHATTAN INC HARM REDUCTION SERVICES,2036,AMSTERDAM AVENUE,2036 AMSTERDAM AVENUE,NEW YORK,Manhattan,1,10032.0,40.8350123354,-73.9408498492,1000617.98628,243500.345556,1062836,1021190036,112,7,24500,MN36,HEALTH CARE,HEALTH PROMOTION AND DISEASE PREVENTION,HARM REDUCTION SERVICES,0,,,Non-public,AIDS SERVICE CENTER OF LOWER MANHATTAN INC,,City,NYC Department of Health and Mental Hygiene,NYCDOHMH,moeo_socialservicesiteloactions,HEALTH AND HUMAN SERVICES,6.0,33,Regional
1248,cbfde3c4f3297b93aac8cb7f73de85ae,AIDS SERVICE CENTER OF LOWER MANHATTAN INC HARM REDUCTION SERVICES,2239,BATHGATE AVENUE,2239 BATHGATE AVENUE,BRONX,Bronx,2,10457.0,40.8536437766,-73.8929878047,1013854.0382899999,250301.037341,2011585,2030500137,206,15,38500,BX01,HEALTH CARE,HEALTH PROMOTION AND DISEASE PREVENTION,HARM REDUCTION SERVICES,0,,,Non-public,AIDS SERVICE CENTER OF LOWER MANHATTAN INC,,City,NYC Department of Health and Mental Hygiene,NYCDOHMH,moeo_socialservicesiteloactions,HEALTH AND HUMAN SERVICES,10.0,48,Regional
1249,234e13c59d49ffa4d80cac43b2c59cbb,AIDS SERVICE CENTER OF LOWER MANHATTAN INC HARM REDUCTION SERVICES,25,ALLEN STREET,25 ALLEN STREET,NEW YORK,Manhattan,1,10002.0,40.7157007375,-73.9925898425,986304.2107149999,200025.67726199998,1003893,1003000025,103,1,1600,MN27,HEALTH CARE,HEALTH PROMOTION AND DISEASE PREVENTION,HARM REDUCTION SERVICES,0,,,Non-public,AIDS SERVICE CENTER OF LOWER MANHATTAN INC,,City,NYC Department of Health and Mental Hygiene,NYCDOHMH,moeo_socialservicesiteloactions,HEALTH AND HUMAN SERVICES,2.0,5,Regional
1250,b9ebf9cd5662c9e0e3c51772df87ac9c,AIDS SERVICE CENTER OF LOWER MANHATTAN INC HARM REDUCTION SERVICES,315,EAST 104 STREET,315 EAST 104 STREET,NEW YORK,Manhattan,1,10029.0,40.7890816747,-73.94237077689999,1000208.12555,226765.89009499998,1052711,1016760010,111,8,17000,MN33,HEALTH CARE,HEALTH PROMOTION AND DISEASE PREVENTION,HARM REDUCTION SERVICES,0,,,Non-public,AIDS SERVICE CENTER OF LOWER MANHATTAN INC,,City,NYC Department of Health and Mental Hygiene,NYCDOHMH,moeo_socialservicesiteloactions,HEALTH AND HUMAN SERVICES,4.0,23,Regional
1251,7d5c24228e4a7e2aa6a95dc4999d5269,AIDS SERVICE CENTER OF LOWER MANHATTAN INC HARM REDUCTION SERVICES,440,WEST 163 STREET,440 WEST 163 STREET,NEW YORK,Manhattan,1,10032.0,40.835909254200004,-73.9385743175,1001247.4405,243827.55963899998,1087429,1021100015,112,10,24301,MN36,HEALTH CARE,HEALTH PROMOTION AND DISEASE PREVENTION,HARM REDUCTION SERVICES,0,,,Non-public,AIDS SERVICE CENTER OF LOWER MANHATTAN INC,,City,NYC Department of Health and Mental Hygiene,NYCDOHMH,moeo_socialservicesiteloactions,HEALTH AND HUMAN SERVICES,6.0,33,Regional
1252,bd73e8c3d2eec0a7fac2e38c24688fdc,AIDS SERVICE CENTER OF LOWER MANHATTAN INC HARM REDUCTION SERVICES,441,LENOX AVENUE,441 LENOX AVENUE,NEW YORK,Manhattan,1,10037.0,40.812450453800004,-73.9425311841,1000158.12144,235279.923519,1058162,1019170029,110,9,22600,MN03,HEALTH CARE,HEALTH PROMOTION AND DISEASE PREVENTION,HARM REDUCTION SERVICES,0,,,Non-public,AIDS SERVICE CENTER OF LOWER MANHATTAN INC,,City,NYC Department of Health and Mental Hygiene,NYCDOHMH,moeo_socialservicesiteloactions,HEALTH AND HUMAN SERVICES,5.0,32,Regional
1253,54b87623d63f96b3fd0f156e81e6b9a6,AIDS SERVICE CENTER OF LOWER MANHATTAN INC HARM REDUCTION SERVICES,601,PROSPECT AVENUE,601 PROSPECT AVENUE,BRONX,Bronx,2,10455.0,40.8139053298,-73.9042004153,1010767.99756,235819.269061,2004907,2026740039,201,8,7900,BX34,HEALTH CARE,HEALTH PROMOTION AND DISEASE PREVENTION,HARM REDUCTION SERVICES,0,,,Non-public,AIDS SERVICE CENTER OF LOWER MANHATTAN INC,,City,NYC Department of Health and Mental Hygiene,NYCDOHMH,moeo_socialservicesiteloactions,HEALTH AND HUMAN SERVICES,7.0,40,Regional
1254,007a71ab10579b579a26c74d7fe177ec,AIDS SERVICE CENTER OF LOWER MANHATTAN INC HARM REDUCTION SERVICES,64,WEST 35 STREET,64 WEST 35 STREET,NEW YORK,Manhattan,1,10001.0,40.7498790124,-73.9868374213,987897.000076,212478.080939,1015868,1008360007,105,4,7600,MN17,HEALTH CARE,HEALTH PROMOTION AND DISEASE PREVENTION,HARM REDUCTION SERVICES,0,,,Non-public,AIDS SERVICE CENTER OF LOWER MANHATTAN INC,,City,NYC Department of Health and Mental Hygiene,NYCDOHMH,moeo_socialservicesiteloactions,HEALTH AND HUMAN SERVICES,2.0,14,Regional
1255,c24c4545712e82d1a4fc5c46e9736d9a,AIDS SERVICE CENTER OF LOWER MANHATTAN INC HEALTH EDUCATION AND RISK REDUCTION,1870,PELHAM PARKWAY SOUTH,1870 PELHAM PARKWAY SOUTH,BRONX,Bronx,2,10461.0,40.855237601199995,-73.8307178903,1031079.35515,250908.89492399996,2047795,2042500026,210,13,30000,BX10,HEALTH CARE,HEALTH PROMOTION AND DISEASE PREVENTION,HEALTH EDUCATION AND RISK REDUCTION,0,,,Non-public,AIDS SERVICE CENTER OF LOWER MANHATTAN INC,,City,NYC Department of Health and Mental Hygiene,NYCDOHMH,moeo_socialservicesiteloactions,HEALTH AND HUMAN SERVICES,8.0,45,Regional
1256,4ec582c1ee49dd0c3e505e8ccd9dcf57,AIDS SERVICE CENTER OF LOWER MANHATTAN INC HEALTH EDUCATION AND RISK REDUCTION,2036,AMSTERDAM AVENUE,2036 AMSTERDAM AVENUE,NEW YORK,Manhattan,1,10032.0,40.8350123354,-73.9408498492,1000617.98628,243500.345556,1062836,1021190036,112,7,24500,MN36,HEALTH CARE,HEALTH PROMOTION AND DISEASE PREVENTION,HEALTH EDUCATION AND RISK REDUCTION,0,,,Non-public,AIDS SERVICE CENTER OF LOWER MANHATTAN INC,,City,NYC Department of Health and Mental Hygiene,NYCDOHMH,moeo_socialservicesiteloactions,HEALTH AND HUMAN SERVICES,6.0,33,Regional
1257,5a74cc41f46e061cf8bc6cf4378df9e8,AIDS SERVICE CENTER OF LOWER MANHATTAN INC HEALTH EDUCATION AND RISK REDUCTION,315,EAST 104 STREET,315 EAST 104 STREET,NEW YORK,Manhattan,1,10029.0,40.7890816747,-73.94237077689999,1000208.12555,226765.89009499998,1052711,1016760010,111,8,17000,MN33,HEALTH CARE,HEALTH PROMOTION AND DISEASE PREVENTION,HEALTH EDUCATION AND RISK REDUCTION,0,,,Non-public,AIDS SERVICE CENTER OF LOWER MANHATTAN INC,,City,NYC Department of Health and Mental Hygiene,NYCDOHMH,moeo_socialservicesiteloactions,HEALTH AND HUMAN SERVICES,4.0,23,Regional
1258,f05a68be46b7d6f7a02cdcb20b58e794,AIDS SERVICE CENTER OF LOWER MANHATTAN INC HEALTH EDUCATION AND RISK REDUCTION,64,WEST 35 STREET,64 WEST 35 STREET,NEW YORK,Manhattan,1,10001.0,40.7498790124,-73.9868374213,987897.000076,212478.080939,1015868,1008360007,105,4,7600,MN17,HEALTH CARE,HEALTH PROMOTION AND DISEASE PREVENTION,HEALTH EDUCATION AND RISK REDUCTION,0,,,Non-public,AIDS SERVICE CENTER OF LOWER MANHATTAN INC,,City,NYC Department of Health and Mental Hygiene,NYCDOHMH,moeo_socialservicesiteloactions,HEALTH AND HUMAN SERVICES,2.0,14,Regional
1259,87d4d9b099c0addcc098b2b6ca54e41f,AIDS SERVICE CENTER OF LOWER MANHATTAN INC HEALTH EDUCATION AND RISK REDUCTION,936,WOODYCREST AVENUE,936 WOODYCREST AVENUE,BRONX,Bronx,2,10452.0,40.830547811100004,-73.9291356722,1003860.8399700001,241876.160654,2090416,2025040006,204,8,18900,BX26,HEALTH CARE,HEALTH PROMOTION AND DISEASE PREVENTION,HEALTH EDUCATION AND RISK REDUCTION,0,,,Non-public,AIDS SERVICE CENTER OF LOWER MANHATTAN INC,,City,NYC Department of Health and Mental Hygiene,NYCDOHMH,moeo_socialservicesiteloactions,HEALTH AND HUMAN SERVICES,9.0,44,Regional
1260,9ed4fca0c9bcf7996899651f5cda2c9a,AIDS SERVICE CENTER OF LOWER MANHATTAN INC HEP-C PEER NAVIGATION [574],23,ALLEN STREET,23 ALLEN STREET,NEW YORK,Manhattan,1,10002.0,40.7156420493,-73.9926439038,986289.225873,200004.294103,1003894,1003000026,103,1,1600,MN27,HEALTH CARE,HEALTH PROMOTION AND DISEASE PREVENTION,HEP-C PEER NAVIGATION [574],0,,,Non-public,AIDS SERVICE CENTER OF LOWER MANHATTAN INC,,City,NYC Department of Health and Mental Hygiene,NYCDOHMH,moeo_socialservicesiteloactions,HEALTH AND HUMAN SERVICES,2.0,5,Regional
1261,7cb0e51c08c728b1ce99d2ca47e5f323,AIDS SERVICE CENTER OF LOWER MANHATTAN INC HIV PREVENTION NAVIGATION AT NYC DOHMH BSTDC CLINICS FOR MSM OF COLOR AND TRANSGENDER PERSONS,64,WEST 35 STREET,64 WEST 35 STREET,NEW YORK,Manhattan,1,10001.0,40.7498790124,-73.9868374213,987897.000076,212478.080939,1015868,1008360007,105,4,7600,MN17,HEALTH CARE,HEALTH PROMOTION AND DISEASE PREVENTION,HIV PREVENTION SERVICES,0,,,Non-public,AIDS SERVICE CENTER OF LOWER MANHATTAN INC,,City,NYC Department of Health and Mental Hygiene,NYCDOHMH,moeo_socialservicesiteloactions,HEALTH AND HUMAN SERVICES,2.0,14,Regional
1262,bb606830a652b395a5088386b612e5fe,AIDS SERVICE CENTER OF LOWER MANHATTAN INC HIV TESTING SERVICES: SOCIAL NETWORK STRATEGY TESTING IN NON-CLINICAL SETTINGS,150,1 AVENUE,150 1 AVENUE,NEW YORK,Manhattan,1,10009.0,40.7281886447,-73.9844148718,988569.6300129999,204575.703759,1005894,1004370001,103,2,3400,MN22,HEALTH CARE,HOSPITALS AND CLINICS,DIAGNOSTIC AND TREATMENT CENTER,0,,,Non-public,AIDS SERVICE CENTER OF LOWER MANHATTAN INC,,City,NYC Department of Health and Mental Hygiene,NYCDOHMH,moeo_socialservicesiteloactions,HEALTH AND HUMAN SERVICES,1.0,9,Regional
1263,a0a9a5a4be8274fc36fc79ba6d60ea4f,AIDS SERVICE CENTER OF LOWER MANHATTAN INC HIV TESTING SERVICES: SOCIAL NETWORK STRATEGY TESTING IN NON-CLINICAL SETTINGS,2036,AMSTERDAM AVENUE,2036 AMSTERDAM AVENUE,NEW YORK,Manhattan,1,10032.0,40.8350123354,-73.9408498492,1000617.98628,243500.345556,1062836,1021190036,112,7,24500,MN36,HEALTH CARE,HOSPITALS AND CLINICS,DIAGNOSTIC AND TREATMENT CENTER,0,,,Non-public,AIDS SERVICE CENTER OF LOWER MANHATTAN INC,,City,NYC Department of Health and Mental Hygiene,NYCDOHMH,moeo_socialservicesiteloactions,HEALTH AND HUMAN SERVICES,6.0,33,Regional
1264,1dfa10dd06f89f13a6eb5ca1eebd9ca4,AIDS SERVICE CENTER OF LOWER MANHATTAN INC HIV TESTING SERVICES: SOCIAL NETWORK STRATEGY TESTING IN NON-CLINICAL SETTINGS,315,EAST 104 STREET,315 EAST 104 STREET,NEW YORK,Manhattan,1,10029.0,40.7890816747,-73.94237077689999,1000208.12555,226765.89009499998,1052711,1016760010,111,8,17000,MN33,HEALTH CARE,HOSPITALS AND CLINICS,DIAGNOSTIC AND TREATMENT CENTER,0,,,Non-public,AIDS SERVICE CENTER OF LOWER MANHATTAN INC,,City,NYC Department of Health and Mental Hygiene,NYCDOHMH,moeo_socialservicesiteloactions,HEALTH AND HUMAN SERVICES,4.0,23,Regional
1265,86de07b3f9ef97313f182f51b15c7b9d,AIDS SERVICE CENTER OF LOWER MANHATTAN INC HIV TESTING SERVICES: SOCIAL NETWORK STRATEGY TESTING IN NON-CLINICAL SETTINGS,566,WEST 181 STREET,566 WEST 181 STREET,NEW YORK,Manhattan,1,10033.0,40.8489173061,-73.9336009586,1002620.05347,248567.883714,1063636,1021530063,112,10,26900,MN35,HEALTH CARE,HOSPITALS AND CLINICS,DIAGNOSTIC AND TREATMENT CENTER,0,,,Non-public,AIDS SERVICE CENTER OF LOWER MANHATTAN INC,,City,NYC Department of Health and Mental Hygiene,NYCDOHMH,moeo_socialservicesiteloactions,HEALTH AND HUMAN SERVICES,6.0,34,Regional
1266,d8389b7cc37e2c4249cddd1c19fc7e58,AIDS SERVICE CENTER OF LOWER MANHATTAN INC HIV TESTING SERVICES: SOCIAL NETWORK STRATEGY TESTING IN NON-CLINICAL SETTINGS,64,WEST 35 STREET,64 WEST 35 STREET,NEW YORK,Manhattan,1,10001.0,40.7498790124,-73.9868374213,987897.000076,212478.080939,1015868,1008360007,105,4,7600,MN17,HEALTH CARE,HOSPITALS AND CLINICS,DIAGNOSTIC AND TREATMENT CENTER,0,,,Non-public,AIDS SERVICE CENTER OF LOWER MANHATTAN INC,,City,NYC Department of Health and Mental Hygiene,NYCDOHMH,moeo_socialservicesiteloactions,HEALTH AND HUMAN SERVICES,2.0,14,Regional
1267,1da5622667e3dc56f48ae4d27d1a6e2d,AIDS SERVICE CENTER OF LOWER MANHATTAN INC OUTREACH AND EDUCATION IN CBOS,64,WEST 35 STREET,64 WEST 35 STREET,NEW YORK,Manhattan,1,10001.0,40.7498790124,-73.9868374213,987897.000076,212478.080939,1015868,1008360007,105,4,7600,MN17,HEALTH CARE,HEALTH PROMOTION AND DISEASE PREVENTION,OUTREACH AND EDUCATION IN CBOS,0,,,Non-public,AIDS SERVICE CENTER OF LOWER MANHATTAN INC,,City,NYC Department of Health and Mental Hygiene,NYCDOHMH,moeo_socialservicesiteloactions,HEALTH AND HUMAN SERVICES,2.0,14,Regional
1268,c286f5bed36f19ffa1713420928a9ba9,AIDS SERVICE CENTER OF LOWER MANHATTAN INC SUPPORTIVE COUNSELING & FAMILY STABILIZATION SERVICES - SEP,1870,PELHAM PARKWAY SOUTH,1870 PELHAM PARKWAY SOUTH,BRONX,Bronx,2,10461.0,40.855237601199995,-73.8307178903,1031079.35515,250908.89492399996,2047795,2042500026,210,13,30000,BX10,HEALTH CARE,OTHER HEALTH CARE,SUPPORTIVE COUNSELING & FAMILY STABILIZATION SERVICES - SEP,0,,,Non-public,AIDS SERVICE CENTER OF LOWER MANHATTAN INC,,City,NYC Department of Health and Mental Hygiene,NYCDOHMH,moeo_socialservicesiteloactions,HEALTH AND HUMAN SERVICES,8.0,45,Regional
1269,8b2f5e08f3c116c5437e400551332709,AIDS SERVICE CENTER OF LOWER MANHATTAN INC SUPPORTIVE COUNSELING & FAMILY STABILIZATION SERVICES - SEP,25,ALLEN STREET,25 ALLEN STREET,NEW YORK,Manhattan,1,10002.0,40.7157007375,-73.9925898425,986304.2107149999,200025.67726199998,1003893,1003000025,103,1,1600,MN27,HEALTH CARE,OTHER HEALTH CARE,SUPPORTIVE COUNSELING & FAMILY STABILIZATION SERVICES - SEP,0,,,Non-public,AIDS SERVICE CENTER OF LOWER MANHATTAN INC,,City,NYC Department of Health and Mental Hygiene,NYCDOHMH,moeo_socialservicesiteloactions,HEALTH AND HUMAN SERVICES,2.0,5,Regional
1270,8734399eb313670d468bc138ab4313a6,AIDS SERVICE CENTER OF LOWER MANHATTAN INC UNDETECTABLES VIRAL LOAD SUPPRESSION PROGRAM,1870,PELHAM PARKWAY SOUTH,1870 PELHAM PARKWAY SOUTH,BRONX,Bronx,2,10461.0,40.855237601199995,-73.8307178903,1031079.35515,250908.89492399996,2047795,2042500026,210,13,30000,BX10,HEALTH CARE,OTHER HEALTH CARE,UNDETECTABLES VIRAL LOAD SUPPRESSION PROGRAM,0,,,Non-public,AIDS SERVICE CENTER OF LOWER MANHATTAN INC,,City,NYC Department of Health and Mental Hygiene,NYCDOHMH,moeo_socialservicesiteloactions,HEALTH AND HUMAN SERVICES,8.0,45,Regional
1271,a2098f578743ad891ea3423bb21e4b1f,AIDS SERVICE CENTER OF LOWER MANHATTAN INC UNDETECTABLES VIRAL LOAD SUPPRESSION PROGRAM,2036,AMSTERDAM AVENUE,2036 AMSTERDAM AVENUE,NEW YORK,Manhattan,1,10032.0,40.8350123354,-73.9408498492,1000617.98628,243500.345556,1062836,1021190036,112,7,24500,MN36,HEALTH CARE,OTHER HEALTH CARE,UNDETECTABLES VIRAL LOAD SUPPRESSION PROGRAM,0,,,Non-public,AIDS SERVICE CENTER OF LOWER MANHATTAN INC,,City,NYC Department of Health and Mental Hygiene,NYCDOHMH,moeo_socialservicesiteloactions,HEALTH AND HUMAN SERVICES,6.0,33,Regional
1272,5fbfa02aac509553e9a01174989a5dff,AIDS SERVICE CENTER OF LOWER MANHATTAN INC UNDETECTABLES VIRAL LOAD SUPPRESSION PROGRAM,64,WEST 35 STREET,64 WEST 35 STREET,NEW YORK,Manhattan,1,10001.0,40.7498790124,-73.9868374213,987897.000076,212478.080939,1015868,1008360007,105,4,7600,MN17,HEALTH CARE,OTHER HEALTH CARE,UNDETECTABLES VIRAL LOAD SUPPRESSION PROGRAM,0,,,Non-public,AIDS SERVICE CENTER OF LOWER MANHATTAN INC,,City,NYC Department of Health and Mental Hygiene,NYCDOHMH,moeo_socialservicesiteloactions,HEALTH AND HUMAN SERVICES,2.0,14,Regional
1283,a24e46fb6fade28de1c3b496180bc21a,AISHEL SHABBAT,1002,QUENTIN ROAD,1002 QUENTIN ROAD,BROOKLYN,Brooklyn,3,11223.0,40.607504713000004,-73.9627624683,994589.5785540001,160608.938175,3177584,3066660013,315,44,42000,BK25,HUMAN SERVICES,SOUP KITCHENS AND FOOD PANTRIES,FOOD PANTRY,0,,,Non-public,Aishel Shabbat,Non-public,,Non-public,Non-public,foodbankny_foodbanks,HEALTH AND HUMAN SERVICES,21.0,61,Local
1312,b968321d29f17e04602517122f2c0bd0,ALBANY,1185,PARK PLACE,1185 PARK PLACE,BROOKLYN,Brooklyn,3,11213.0,40.673278231,-73.93843302399999,1001328.18319,184575.821761,3324613,3013520080,308,36,34300,BK61,HUMAN SERVICES,COMMUNITY CENTERS AND COMMUNITY SCHOOL PROGRAMS,NYCHA COMMUNITY CENTER - CHILD CARE,0,,,Public,NYC Housing Authority,NYCHA,City,NYC Housing Authority,NYCHA,nycha_communitycenters,HEALTH AND HUMAN SERVICES,17.0,77,Local
1313,f027c5a93b70bfdcb8531486693e427b,ALBANY,164,TROY AVENUE,164 TROY AVENUE,BROOKLYN,Brooklyn,3,11213.0,40.6739310404,-73.93680781319999,1001778.83192,184813.979831,3324617,3013520080,308,36,34300,BK61,HUMAN SERVICES,COMMUNITY CENTERS AND COMMUNITY SCHOOL PROGRAMS,NYCHA COMMUNITY CENTER - COMMUNITY CENTER - CORNERSTONE,0,,,Public,NYC Housing Authority,NYCHA,City,NYC Housing Authority,NYCHA,nycha_communitycenters,HEALTH AND HUMAN SERVICES,16.0,77,Local
1327,adb02f810dd9db60994d00483af321cd,ALBERT TUITT EDUCATIONAL ACADEMY,,,,BRONX,Bronx,2,10466.0,40.887821,-73.85251600000001,1025029.2539299999,262769.390807,0,0,212,12,40400,BX44,HEALTH CARE,HOSPITALS AND CLINICS,SCHOOL BASED DIAGNOSTIC AND TREATMENT CENTER EXTENSION CLINIC,0,,,Non-public,Morris Heights Health Center Inc,Non-public,State,NYS Department of Health,NYSDOH,nysdoh_healthfacilities,HEALTH AND HUMAN SERVICES,11.0,47,Regional
1339,3a346a74ba3c78334d13c460abad704c,ALCOHOLISM & SUB. ABUSE TREATMENT OP,1727,AMSTERDAM AVENUE,1727 AMSTERDAM AVENUE,NEW YORK,Manhattan,1,10031.0,40.8252054713,-73.94690863529999,998943.56919,239926.27100900002,1061339,1020600001,109,7,23100,MN04,HEALTH CARE,CHEMICAL DEPENDENCY,OUTPATIENT CLINIC,0,,,Non-public,Upper Manhattan Mental Health Center,,State,NYS Office of Alcoholism and Substance Abuse Services,NYSOASAS,nysoasas_programs,HEALTH AND HUMAN SERVICES,6.0,30,Regional
1340,f210e296828fc6e294fe80e5388d3470,ALCOHOLISM OUTPATIENT CLINIC,,,,BRONX,Bronx,2,10454.0,40.811271999999995,-73.923813,1005339.9324200001,234854.523859,0,0,201,8,3900,BX39,HEALTH CARE,HOSPITALS AND CLINICS,HOSPITAL EXTENSION CLINIC,0,,,Public,NYC Health and Hospitals Corporation,Non-public,State,NYS Department of Health,NYSDOH,nysdoh_healthfacilities,HEALTH AND HUMAN SERVICES,7.0,40,Regional
1341,f075af62f38bc7ae6774a72c88421f17,ALCOHOLISM TREATMENT CENTER IP,500,WEST 57 STREET,500 WEST 57 STREET,NEW YORK,Manhattan,1,10019.0,40.7689598781,-73.9889773527,987303.2073,219429.78264499997,1027066,1010850036,104,6,13500,MN15,HEALTH CARE,CHEMICAL DEPENDENCY,INPATIENT REHABILITATION,0,,,Non-public,Addiction Care Interventions,,State,NYS Office of Alcoholism and Substance Abuse Services,NYSOASAS,nysoasas_programs,HEALTH AND HUMAN SERVICES,2.0,18,Regional
1342,6b7e97881d6f906d5a68544e3ce04ae8,ALCOHOLISM TREATMENT PROGRAM OP,100,NORTH PORTLAND AVENUE,100 NORTH PORTLAND AVENUE,BROOKLYN,Brooklyn,3,11205.0,40.6950917482,-73.9764736984,990773.872582,192517.993459,3251647,3020390101,302,35,2901,BK68,HEALTH CARE,CHEMICAL DEPENDENCY,OUTPATIENT CLINIC,0,,,Non-public,Cumberland D/TC (HHC),,State,NYS Office of Alcoholism and Substance Abuse Services,NYSOASAS,nysoasas_programs,HEALTH AND HUMAN SERVICES,13.0,88,Regional
1343,d3e7711106ddd6ca56c4e246b9beed92,ALCOHOLISM TREATMENT PROGRAM OP R,100,NORTH PORTLAND AVENUE,100 NORTH PORTLAND AVENUE,BROOKLYN,Brooklyn,3,11205.0,40.6950917482,-73.9764736984,990773.872582,192517.993459,3251647,3020390101,302,35,2901,BK68,HEALTH CARE,CHEMICAL DEPENDENCY,OUTPATIENT REHABILITATION,0,,,Non-public,Cumberland D/TC (HHC),,State,NYS Office of Alcoholism and Substance Abuse Services,NYSOASAS,nysoasas_programs,HEALTH AND HUMAN SERVICES,13.0,88,Regional
1357,20b9a0390ec7f43d9cedc8d7f5ba95cb,ALEXANDRIA & AKEA'S PLAYHOUSE INC,134,MARINERS LANE,134 MARINERS LANE,STATEN ISLAND,Staten Island,5,10303.0,40.6352697859,-74.15281907079999,941835.0808809999,170759.287632,5101598,5011860150,501,49,22300,SI12,HUMAN SERVICES,PROGRAMS FOR PEOPLE WITH DISABILITIES,PROGRAMS FOR PEOPLE WITH DISABILITIES,0,,,Non-public,Alexandria & Akea'S Playhouse Inc,Non-public,State,NYS Office for People With Developmental Disabilities,NYSOPWDD,nysopwdd_providers,HEALTH AND HUMAN SERVICES,31.0,121,Local
1366,b5c55ee6085d5438b838a03a50ef1999,ALI FORNEY CENTER RUNAWAY & HOMELESS YOUTH,321,WEST 125 STREET,321 WEST 125 STREET,NEW YORK,Manhattan,1,10027.0,40.8109218941,-73.9521714989,997489.8603190001,234721.41091500001,1059310,1019520019,110,9,25700,MN11,HEALTH CARE,OTHER HEALTH CARE,RUNAWAY & HOMELESS YOUTH,0,,,Non-public,ALI FORNEY CENTER,,City,NYC Department of Youth and Community Development,NYCDYCD,moeo_socialservicesiteloactions,HEALTH AND HUMAN SERVICES,5.0,28,Regional
1368,c4d678e42dc65f33880ad71a48e59336,"ALIANZA DOMINICANA, INC. (ADMIN & ACTIVITY SITE)",1257,OGDEN AVENUE,1257 OGDEN AVENUE,BRONX,Bronx,2,10452.0,40.8395393125,-73.9259234466,1004747.0137799999,245152.832081,2003519,2025290081,204,16,20100,BX26,HUMAN SERVICES,IMMIGRANT SERVICES,"SERVICES - IMMIGRANT FAMILIES IMMIGRATION SERVICES,IMMIGRANT SUPPORT SERVICES",0,,,Non-public,"Alianza Dominicana, Inc.",,City,NYC Department of Youth and Community Development,NYCDYCD,dycd_afterschoolprograms,HEALTH AND HUMAN SERVICES,9.0,44,Local
1375,de387e7216f4101b262b8302356d69bf,ALICIA M. FERRER MENTAL HEALTH CLINIC,651,ACADEMY STREET,651 ACADEMY STREET,NEW YORK,Manhattan,1,10034.0,40.866135071799995,-73.92452407479999,1005125.87144,254843.009556,1081917,1022340001,112,10,29100,MN01,HEALTH CARE,MENTAL HEALTH,OUTPATIENT MENTAL HEALTH,0,,,Non-public,Inwood Community Services Inc.,Non-public,State,NYS Office of Mental Health,NYSOMH,nysomh_mentalhealth,HEALTH AND HUMAN SERVICES,6.0,34,Regional
1386,4703f7781f3f8baffc04d2b0ec8fc7ea,"ALL CITY FAMILY HEALTHCARE CENTER, INC.",,,,BROOKLYN,Brooklyn,3,11229.0,40.595226000000004,-73.94096400000001,1000645.2757,156138.814975,0,0,315,48,59402,BK17,HEALTH CARE,HOSPITALS AND CLINICS,DIAGNOSTIC AND TREATMENT CENTER,0,,,Non-public,All City Family Healthcare Center Inc,Non-public,State,NYS Department of Health,NYSDOH,nysdoh_healthfacilities,HEALTH AND HUMAN SERVICES,22.0,61,Regional
1390,5785a790c51f8f2fbc33d161285cbeca,ALL COUNTY LLC,,,,FLUSHING,Queens,4,11365.0,40.738861,-73.807381,1037628.37995,208522.28063800003,0,0,407,20,121500,QN62,HEALTH CARE,HOSPITALS AND CLINICS,DIAGNOSTIC AND TREATMENT CENTER,0,,,Non-public,All County LLC,Non-public,State,NYS Department of Health,NYSDOH,nysdoh_healthfacilities,HEALTH AND HUMAN SERVICES,25.0,109,Regional
1436,fbc125882b97a1371319d4af1bb3fdcc,ALL-MED & REHABILITATION OF NEW YORK,,,,BRONX,Bronx,2,10466.0,40.899326,-73.858231,1023442.2766399999,266958.517977,0,0,212,11,41800,BX62,HEALTH CARE,HOSPITALS AND CLINICS,DIAGNOSTIC AND TREATMENT CENTER,0,,,Non-public,RJZM LLC,Non-public,State,NYS Department of Health,NYSDOH,nysdoh_healthfacilities,HEALTH AND HUMAN SERVICES,11.0,47,Regional
1437,33acfcb791e51f33ccc9ad8972c24108,ALL-MED REHABILITATION CENTER QUEENS,,,,JAMAICA,Queens,4,11418.0,40.696445000000004,-73.83766899999999,1029263.6484899999,193051.855596,0,0,409,28,12601,QN54,HEALTH CARE,HOSPITALS AND CLINICS,DIAGNOSTIC AND TREATMENT CENTER EXTENSION CLINIC,0,,,Non-public,RJZM LLC,Non-public,State,NYS Department of Health,NYSDOH,nysdoh_healthfacilities,HEALTH AND HUMAN SERVICES,27.0,102,Regional
1438,5ff6719303fe2ed0939b3906b9056c28,ALLCARE PROVIDER SERVICES  INC,3040,EAST TREMONT AVENUE,3040 EAST TREMONT AVENUE,BRONX,Bronx,2,10461.0,40.8394232406,-73.837111412,1029321.39951,245143.78166999997,2074096,2053710048,210,13,19400,BX52,HUMAN SERVICES,PROGRAMS FOR PEOPLE WITH DISABILITIES,PROGRAMS FOR PEOPLE WITH DISABILITIES,0,,,Non-public,Allcare Provider Services  Inc,Non-public,State,NYS Office for People With Developmental Disabilities,NYSOPWDD,nysopwdd_providers,HEALTH AND HUMAN SERVICES,8.0,45,Local
1439,ab83e82d1ff4c823be7852c346846ecf,ALLEN AME CHURCH DBA ALLEN COMMUNITY SENIOR CITIZE,166-01,LINDEN BOULEVARD,166-01 LINDEN BOULEVARD,JAMAICA,Queens,4,11434.0,40.69045411,-73.7828624401,1044466.64165,190902.122511,4435290,4123220001,412,27,26600,QN01,HUMAN SERVICES,SENIOR SERVICES,SENIOR CENTER,0,,,Non-public,Allen Ame Church Dba Allen Community Senior Citize,Non-public,City,NYC Department for the Aging,NYCDFTA,dfta_contracts,HEALTH AND HUMAN SERVICES,28.0,113,Local
1444,180806d54919599337826ed2cc70298e,ALLEN OUTREACH MINISTRY FEEDING PROGRAM,111-54,MERRICK BOULEVARD,111-54 MERRICK BOULEVARD,JAMAICA,Queens,4,11433.0,40.693041702100004,-73.7807455656,1045051.33295,191846.317607,4217363,4102080001,412,27,26600,QN01,HUMAN SERVICES,SOUP KITCHENS AND FOOD PANTRIES,FOOD PANTRY,0,,,Non-public,Allen Outreach Ministry Feeding Program,Non-public,,Non-public,Non-public,foodbankny_foodbanks,HEALTH AND HUMAN SERVICES,28.0,113,Local
1445,88878e88c656c28d598932be3e6b8b97,ALLEN OUTREACH MINISTRY FEEDING PROGRAM,111-54,MERRICK BOULEVARD,111-54 MERRICK BOULEVARD,JAMAICA,Queens,4,11433.0,40.693041702100004,-73.7807455656,1045051.33295,191846.317607,4217363,4102080001,412,27,26600,QN01,HUMAN SERVICES,SOUP KITCHENS AND FOOD PANTRIES,SOUP KITCHEN,0,,,Non-public,Allen Outreach Ministry Feeding Program,Non-public,,Non-public,Non-public,foodbankny_foodbanks,HEALTH AND HUMAN SERVICES,28.0,113,Local
1450,5562be7aaa651a76a258409f527aae2a,ALLERTON DIALYSIS,,,,BRONX,Bronx,2,10467.0,40.864861,-73.86702700000001,1021029.6712399999,254397.737804,0,2044330027,211,15,33000,BX07,HEALTH CARE,HOSPITALS AND CLINICS,DIAGNOSTIC AND TREATMENT CENTER EXTENSION CLINIC,0,,,Non-public,"Knickerbocker Dialysis, Inc",Non-public,State,NYS Department of Health,NYSDOH,nysdoh_healthfacilities,HEALTH AND HUMAN SERVICES,11.0,49,Regional
1461,cd3618d3f5d305c80a4c9a083a30ab21,ALLHEALTH D & T CENTER-BROOKLYN,,,,BROOKLYN,Brooklyn,3,11230.0,40.630699,-73.966454,993561.3314489999,169058.81270799998,0,0,314,40,46000,BK42,HEALTH CARE,HOSPITALS AND CLINICS,DIAGNOSTIC AND TREATMENT CENTER EXTENSION CLINIC,0,,,Non-public,B & L Health Inc,Non-public,State,NYS Department of Health,NYSDOH,nysdoh_healthfacilities,HEALTH AND HUMAN SERVICES,22.0,70,Regional
